prac_loc_id	license_no	address1	address2	city	state	zip	language_office	percent_location	days_seen	latitude	longitude	count_language_office	count_days_seen	concat_address
1000_101036474	101036474	p o box 3401		colonial heights	va	23834		3	Wed			0	1	p o box 3401,colonial heights,va,23834
1001_101036474	101036474	3908 buckingham rd		powhatan	va	23139		1		37.5442008972	-77.9195404053	0	0	3908 buckingham rd,powhatan,va,23139
1002_101036478	101036478	3700 s main st	lewisgale montgomery hospital	blacksburg	va	24060		40		37.1880569458	-80.4111785889	0	0	3700 s main st,blacksburg,va,24060
1003_101036486	101036486	13700 st francis blvd		midlothian	va	23114		10	Wed	37.4655723572	-77.6589813232	0	1	13700 st francis blvd,midlothian,va,23114
1004_101036501	101036501	1850 cameron glen drive,		reston	va	20190	52	50	Thur, Tue, Wed	38.9655838013	-77.3588867188	1	3	1850 cameron glen drive,,reston,va,20190
1005_101036501	101036501	6563 edsall rd		springfield	va	22151	52,065,064,044	5	Thur	38.8058586121	-77.1711730957	4	1	6563 edsall rd,springfield,va,22151
1006_101036503	101036503	8501 arlington blvd.,	children's outpatient ctr	fairfax	va	22031	0	20	Fri	38.8654975891	-77.23878479	1	1	8501 arlington blvd.,,fairfax,va,22031
1007_101036537	101036537	2241 langhorne rd		lynchburg	va	24501		2	Thur, Mon, Fri, Tue, Wed	37.4126663208	-79.1734619141	0	5	2241 langhorne rd,lynchburg,va,24501
1008_101036556	101036556	2000 leather wood ln		bluefield	va	24605	0	5	Thur, Mon, Fri, Tue, Wed	37.2433319092	-81.2391586304	1	5	2000 leather wood ln,bluefield,va,24605
1009_101036556	101036556	141 ben bolt ave		tazewell	va	24651	0	5	Sun, Thur, Mon, Fri, Tue, Sat, Wed	37.1247558594	-81.4940643311	1	7	141 ben bolt ave,tazewell,va,24651
100_101019976	101019976	668 hospital road,suite 301	riverside med arts bldg	tappahannock	va	22560		40	Mon, Tue	37.9003868103	-76.878692627	0	2	668 hospital road,suite 301,tappahannock,va,22560
1010_101036560	101036560	15195 heathcote blvd		haymarket	va	20169		10	Mon	38.8208770752	-77.6419143677	0	1	15195 heathcote blvd,haymarket,va,20169
1011_101036560	101036560	388 hospital dr		warrenton	va	20186	0	25	Mon, Tue	38.7134094238	-77.810546875	1	2	388 hospital dr,warrenton,va,20186
1012_101036573	101036573	44055 riverside pkwy		leesburg	va	20176	98,052	15	Thur, Mon, Fri, Wed	39.0747489929	-77.4753723145	2	4	44055 riverside pkwy,leesburg,va,20176
1013_101036573	101036573	3300 gallows rd		fairfax	va	22042	98,052	20	Sun, Thur, Mon, Fri, Tue, Sat, Wed	38.8587532043	-77.2261123657	2	7	3300 gallows rd,fairfax,va,22042
1014_101036573	101036573	8640 sudley rd		manassas	va	20100	52	5	Tue			1	1	8640 sudley rd,manassas,va,20100
1015_101036585	101036585	6355 walker ln		alexandria	va	22310		30	Mon, Wed	38.7677841187	-77.1613311768	0	2	6355 walker ln,alexandria,va,22310
1016_101036594	101036594	1515 chain bridge rd		mclean	va	22101	52,058	40	Thur, Tue	38.9302558899	-77.1817855835	2	2	1515 chain bridge rd,mclean,va,22101
1017_101036643	101036643	500 discovery dr		chesapeake	va	23320		20	Wed	36.7344322205	-76.2227249146	0	1	500 discovery dr,chesapeake,va,23320
1018_101036643	101036643	11783 rock landing dr		newport news	va	23606		20	Wed	37.0875701904	-76.4650497437	0	1	11783 rock landing dr,newport news,va,23606
1019_101036663	101036663	13198 james madison hwy		orange	va	22960		10	Tue	38.2240066528	-78.1225128174	0	1	13198 james madison hwy,orange,va,22960
101_101019978	101019978	8266 atlee rd	mob ii	mechanicsville	va	23116		10	Thur, Mon, Fri, Tue, Wed	37.6299285889	-77.3878555298	0	5	8266 atlee rd,mechanicsville,va,23116
1020_101036663	101036663	13198 james madison hwy		orange	va	22960		15	Tue	38.2240066528	-78.1225128174	0	1	13198 james madison hwy,orange,va,22960
1021_101036704	101036704	1200 first colonial rd		virginia beach	va	23454	58	50	Thur, Mon, Fri, Tue, Wed	36.8694458008	-76.0312805176	1	5	1200 first colonial rd,virginia beach,va,23454
1022_101036715	101036715	3020 hammaker ct,		fairfax	va	22031	0	35	Tue,Fri,	38.8683586121	-77.2372055054	1	3	3020 hammaker ct,,fairfax,va,22031
1023_101036726	101036726	13048 rivers bend rd		chester	va	23836	52	25	Thur	37.3504447937	-77.3648986816	1	1	13048 rivers bend rd,chester,va,23836
1024_101036727	101036727	6515 george washington hwy		graforton	va	23692		15	Thur, Tue, Wed			0	3	6515 george washington hwy,graforton,va,23692
1025_101036727	101036727	2244 executive dr		hampton	va	23666	0	3	Sun, Sat	37.0537338257	-76.39868927	1	2	2244 executive dr,hampton,va,23666
1026_101036746	101036746	1800 town ctr pkwy 311		reston	va	20190	0	10	Tue	38.9634056091	-77.364692688	1	1	1800 town ctr pkwy 311,reston,va,20190
1027_101036778	101036778	7547 medical dr,		gloucester	va	23061		5		37.4193382263	-76.5397567749	0	0	7547 medical dr,,gloucester,va,23061
1028_101036778	101036778	850 enterprise pkwy		hampton	va	23666		30		37.0553131104	-76.4077606201	0	0	850 enterprise pkwy,hampton,va,23666
1029_101036784	101036784	411 w randolph rd	john randolph hospital	hopewell	va	23860		5	Sun, Thur, Mon, Fri, Tue, Sat, Wed, None	37.3075942993	-77.2922134399	0	8	411 w randolph rd,hopewell,va,23860
102_101020065	101020065	24 glouchester rd		stuarts drafort	va	24477		5	Thur	38.0368118286	-79.0249938965	0	1	24 glouchester rd,stuarts drafort,va,24477
1030_101036784	101036784	1602 skipwith rd	henrico doctors hospital	richmond	va	23229		10	Sun, Thur, Mon, Fri, Tue, Sat, Wed	37.6019859314	-77.5378036499	0	7	1602 skipwith rd,richmond,va,23229
1031_101036784	101036784	retreat hospital	2621grove ave	richmond	va	23220		2	Sun, Thur, Mon, Fri, Tue, Sat, Wed			0	7	retreat hospital,richmond,va,23220
1032_101036798	101036798	13575 heathcote boulevard,		gainesville	va	20155		10	Mon	38.8021774292	-77.5995178223	0	1	13575 heathcote boulevard,,gainesville,va,20155
1033_101036800	101036800	7858 shrader rd		richmond	va	23294		50	Thur, Tue	37.6249465942	-77.5257873535	0	2	7858 shrader rd,richmond,va,23294
1034_101036804	101036804	4500 riverside drive,		danville	va	24541		15	Tue	36.5864105225	-79.4491882324	0	1	4500 riverside drive,,danville,va,24541
1035_101036804	101036804	1234 franklin rd sw		roanoke	va	24016		10	Wed	37.2620239258	-79.9462738037	0	1	1234 franklin rd sw,roanoke,va,24016
1036_101036819	101036819	3300 rivermont ave	centra health-virginia baptist hospital	lynchburg	va	24503	52	25	Thur	37.4393310547	-79.1889572144	1	1	3300 rivermont ave,lynchburg,va,24503
1037_101036823	101036823	2926 columbia pike		arlington	va	22204	52	15		38.862033844	-77.087600708	1	0	2926 columbia pike,arlington,va,22204
1038_101036862	101036862	3512 blvd		colonial heights	va	23834	34,052	10	Sun, Thur, Mon, Fri, Tue, Sat, Wed			2	7	3512 blvd,colonial heights,va,23834
1039_101036870	101036870	greenrock correctional ctr		chatham	va			5	Sat			0	1	greenrock correctional ctr,chatham,va,
103_101020108	101020108	1925 glenn mitchell dr		virginia beach	va	23454		40	Thur, Mon, Fri, Tue, Wed			0	5	1925 glenn mitchell dr,virginia beach,va,23454
1040_101036880	101036880	1657 merrimac trail		williamsburg	va	23185	000,098	5	Tue	37.2453155518	-76.6540145874	2	1	1657 merrimac trail,williamsburg,va,23185
1041_101036902	101036902	1788 republic rd		virginia beach	va	23454	0	50	Thur, Mon	36.8525161743	-76.026763916	1	2	1788 republic rd,virginia beach,va,23454
1042_101036912	101036912	3169 e second ave		big stone gap	va	24219	98	10	Fri	36.8841819763	-82.7326965332	1	1	3169 e second ave,big stone gap,va,24219
1043_101036912	101036912	3169 second ave e		big stone gap	va	24219	98	4	Fri	36.8842506409	-82.7326278687	1	1	3169 second ave e,big stone gap,va,24219
1044_101036953	101036953	7121 jahnke rd	chippenham medical park	richmond	va			5	Fri			0	1	7121 jahnke rd,richmond,va,
1045_101036958	101036958	po box box 980341	virginia commonwealth university	richmond	va	23298		35	Sun, Thur, Mon, Fri, Tue, Sat			0	6	po box box 980341,richmond,va,23298
1046_101036976	101036976	5855 bremo rd		richmond	va	23226		33	Thur, Fri	37.5843048096	-77.5131988525	0	2	5855 bremo rd,richmond,va,23226
1047_101036988	101036988	2121 courthouse rd		virginia beach	va	23456	0	10	Mon, Tue	36.7506752014	-76.0558319092	1	2	2121 courthouse rd,virginia beach,va,23456
1048_101036994	101036994	3600 joseph siewick dr	inova fair oaks hospital	fairfax	va	22033		1		38.8874206543	-77.3792037964	0	0	3600 joseph siewick dr,fairfax,va,22033
1049_101037001	101037001	4710 spotsylvania pkwy		fredericksburg	va	22408		10	Thur, Mon, Fri, Tue, Wed	38.2193450928	-77.4981460571	0	5	4710 spotsylvania pkwy,fredericksburg,va,22408
104_101020108	101020108	5320 providence rd		virginia beach	va	23454	21,024,052,057	20	Thur, Mon, Fri, Tue, Wed	36.8153305054	-76.1729812622	4	5	5320 providence rd,virginia beach,va,23454
1050_101037005	101037005	703 n courthouse rd	suite101	richmond	va	23236		10	Tue	37.4783287048	-77.5962982178	0	1	703 n courthouse rd,richmond,va,23236
1051_101037018	101037018	611 s carlin springs rd		arlington	va	22204		10	Fri, Wed	38.8618583679	-77.1291809082	0	2	611 s carlin springs rd,arlington,va,22204
1052_101037024	101037024	1101 e marshall st	p. o. box 980033	richmond	va	23298-0033	98	10		37.5405578613	-77.4313583374	1	0	1101 e marshall st,richmond,va,23298-0033
1053_101037024	101037024	1101 e marshall st	po box box 980033	richmond	va	23298-0033	0	50	Fri, Tue	37.5405578613	-77.4313583374	1	2	1101 e marshall st,richmond,va,23298-0033
1054_101037027	101037027	5899 bremo rd		richmond	va	23226	0	20	Tue	37.5838508606	-77.5138168335	1	1	5899 bremo rd,richmond,va,23226
1055_101037027	101037027	8254 atlee rd		mechanicsville	va	232116	0	20	Thur	37.6275138855	-77.388671875	1	1	8254 atlee rd,mechanicsville,va,232116
1056_101037033	101037033	3700 joseph siewick dr		fairfax	va	22033		25	Mon,Fri,	38.8877029419	-77.3794555664	0	3	3700 joseph siewick dr,fairfax,va,22033
1057_101037052	101037052	100 7th st		grottoes	va	24441		10	Wed	38.2653388977	-78.8230438232	0	1	100 7th st,grottoes,va,24441
1058_101037069	101037069	6 pidgeon hill dr., ste. 170	countryside professional ctr	sterling heights	va	20165	21,027,033,052,012,000	5	Thur, Mon, Fri, Tue, Wed	39.0384254456	-77.4140014648	6	5	6 pidgeon hill dr., ste. 170,sterling heights,va,20165
1059_101037107	101037107	2296 opitz blvd		woodbridge	va	22191	52	50	Thur, Tue	38.6376190186	-77.2850723267	1	2	2296 opitz blvd,woodbridge,va,22191
105_101020154	101020154	1870 amherst st		winchester	va	22601		10	Tue	39.191368103	-78.1955795288	0	1	1870 amherst st,winchester,va,22601
1060_101037107	101037107	8134 old keene mill rd		springfield	va	22152		50	Mon, Fri, Wed	38.7817192078	-77.2265777588	0	3	8134 old keene mill rd,springfield,va,22152
1061_101037113	101037113	209 elden st		herndon	va	20170	0	25	Thur, Mon, Tue, Wed	38.9661827087	-77.3704452515	1	4	209 elden st,herndon,va,20170
1062_101037113	101037113	3554 chain bridge rd		fairfax	va	22030		45	Thur, Mon, Fri, Tue, Wed	38.8609085083	-77.3074798584	0	5	3554 chain bridge rd,fairfax,va,22030
1063_101037116	101037116	1800 town ctr dr		reston	va	20190	52	50	Fri, Tue, Wed	38.9634056091	-77.364692688	1	3	1800 town ctr dr,reston,va,20190
1064_101037136	101037136	1arh ln		low moor	va	24457		50				0	0	1arh ln,low moor,va,24457
1065_101037144	101037144	716 a-2 denbigh blvd		newport news	va	23608	0	40	Thur, Tue, Wed	37.1238098145	-76.5684585571	1	3	716 a-2 denbigh blvd,newport news,va,23608
1066_101037163	101037163	1950 glen mitchell dr		virginia beach	va	23452		25	Thur, Mon, Fri, Tue, Wed	36.7758026123	-76.0975189209	0	5	1950 glen mitchell dr,virginia beach,va,23452
1067_101037166	101037166	150 burnett's way		suffolk	va	23434		30	Thur, Mon	36.7694358826	-76.5813064575	0	2	150 burnett's way,suffolk,va,23434
1068_101037179	101037179	9000 stony point pkwy		richmond	va	23235		40	Mon, Tue	37.5527992249	-77.5653839111	0	2	9000 stony point pkwy,richmond,va,23235
1069_101037180	101037180	600 gresham dr		norfolk	va	23507	0	80		36.8625640869	-76.304977417	1	0	600 gresham dr,norfolk,va,23507
106_101020194	101020194	po box 800712		charlottesville	va	22908-0712	98	10	Mon			1	1	po box 800712,charlottesville,va,22908-0712
1070_101037202	101037202	827 diligence dr		newport news	va	23606		25		37.085308075	-76.4614028931	0	0	827 diligence dr,newport news,va,23606
1071_101037202	101037202	477 viking dr		virginia beach	va	23452		50		36.8274421692	-76.0696182251	0	0	477 viking dr,virginia beach,va,23452
1072_101037228	101037228	8233 old court house rd		vienna	va	22182	44	20	Tue	38.9130592346	-77.2310028076	1	1	8233 old court house rd,vienna,va,22182
1073_101037268	101037268	centre court	ironbridge rd	chesterfield	va	23832	0	15	Thur, Mon, Tue, Wed			1	4	centre court,chesterfield,va,23832
1074_101037286	101037286	9309 centerville rd		manassas	va	20110	54	15	Wed	38.7534179688	-77.4679946899	1	1	9309 centerville rd,manassas,va,20110
1075_101037300	101037300	8320 old courthouse rd		vienna	va	22182	24,021,023,028	50	Mon,Tue,Wed,Thur,Fri,	38.9150810242	-77.2344360352	4	6	8320 old courthouse rd,vienna,va,22182
1076_101037334	101037334	8101 hinson farm rd		alexandria	va	22306	0	66	Mon,Wed,	38.7374267578	-77.0772628784	1	3	8101 hinson farm rd,alexandria,va,22306
1077_101037343	101037343	8266 atlee rd		mechanicsville	va	23116	0	15	Thur, Mon, Fri, Tue, Wed	37.6299285889	-77.3878555298	1	5	8266 atlee rd,mechanicsville,va,23116
1078_101037343	101037343	8266 atlee rd		mechanicsville	va	23116		10	Thur, Mon, Fri, Tue, Wed	37.6299285889	-77.3878555298	0	5	8266 atlee rd,mechanicsville,va,23116
1079_101037343	101037343	8266 atlee rd		mechanicsville	va	23116		15	Thur, Mon, Fri, Tue, Wed	37.6299285889	-77.3878555298	0	5	8266 atlee rd,mechanicsville,va,23116
107_101020218	101020218	1405 johnston willis dr		richmond	va	23235		10	Mon	37.5106811523	-77.5973434448	0	1	1405 johnston willis dr,richmond,va,23235
1080_101037356	101037356	8316 arlington blvd ,		fairfax	va	22031-5216		50	Fri, Tue	38.8656463623	-77.2336196899	0	2	8316 arlington blvd ,,fairfax,va,22031-5216
1081_101037369	101037369	1201 broad rock blvd		richmond	va			20	Tue, Wed			0	2	1201 broad rock blvd,richmond,va,
1082_101037384	101037384	612 kingsborough sq		chesapeake	va	23320	98	40	Thur, Tue	36.7433433533	-76.2462005615	1	2	612 kingsborough sq,chesapeake,va,23320
1083_101037441	101037441	108 houston st		lexington	va	24450	0	20	Tue	37.7783164978	-79.445022583	1	1	108 houston st,lexington,va,24450
1084_101037485	101037485	3636 high st		portsmouth	va	23707		25	Sun, Thur, Mon, Fri, Tue, Sat, Wed	36.8374977112	-76.3502120972	0	7	3636 high st,portsmouth,va,23707
1085_101037494	101037494	1300 n edison		arlington	va	22204	52	40	Thur, Tue	38.8856277466	-77.124786377	1	2	1300 n edison,arlington,va,22204
1086_101037503	101037503	1613 oakwood st		bedford	va	24523	0	25	Thur, Mon, Fri, Tue, Wed	37.3520393372	-79.5164108276	1	5	1613 oakwood st,bedford,va,24523
1087_101037504	101037504	4300 portsmouth blvd		chesapeake	va	23321	98	40	Mon, Fri	36.8224945068	-76.4184036255	1	2	4300 portsmouth blvd,chesapeake,va,23321
1088_101037504	101037504	1168 first colonial rd		virginia beach	va	23454	0	20	Wed	36.8687896729	-76.0297164917	1	1	1168 first colonial rd,virginia beach,va,23454
1089_101037504	101037504	7924 chesapeake blvd		norfolk	va	23518	0	20	Tue	36.9152832031	-76.2413711548	1	1	7924 chesapeake blvd,norfolk,va,23518
108_101020337	101020337	williamsburg		williamsburg	va	23185	55	10	Mon, Tue			1	2	williamsburg,williamsburg,va,23185
1090_101037576	101037576	6 pigeon hill rd		sterling heights	va	20165	52	1	Thur, Mon, Fri, Tue, Wed	39.0384254456	-77.4140014648	1	5	6 pigeon hill rd,sterling heights,va,20165
1091_101037588	101037588	8505 arlington blvd	fairfax, va. 22031	fairfax	va	22031		15	Sun, Thur, Mon, Fri, Tue, Sat, Wed	38.8653793335	-77.2388916016	0	7	8505 arlington blvd,fairfax,va,22031
1092_101037610	101037610	2400 lee hwy		pulaski	va	24301	0	100	Sun, Thur, Mon, Fri, Tue, Sat, Wed	37.0681304932	-80.7568511963	1	7	2400 lee hwy,pulaski,va,24301
1093_101037623	101037623	13471 midlothian turnpike		midlothian	va	23113		50	Thur, Mon, Fri, Tue, Wed	37.5026741028	-77.6483764648	0	5	13471 midlothian turnpike,midlothian,va,23113
1094_101037654	101037654	401 n 11th st		richmond	va	23298	0	2	Sun, Sat	37.5415306091	-77.430480957	1	2	401 n 11th st,richmond,va,23298
1095_101037688	101037688	1890 metro ctr dr		reston	va	20190	98	20	Thur	38.9500389099	-77.341003418	1	1	1890 metro ctr dr,reston,va,20190
1096_101037688	101037688	8008 westpark dr		mclean	va	22102	98	20	Wed	38.9295463562	-77.2242507935	1	1	8008 westpark dr,mclean,va,22102
1097_101037688	101037688	6501 loisdale rd		springfield	va		98	20	Mon	38.7754859924	-77.1767883301	1	1	6501 loisdale rd,springfield,va,
1098_101037691	101037691	1950 glenn mitchell dr		virginia beach	va	23456	98	25	Sun, Sat	36.7758026123	-76.0975189209	1	2	1950 glenn mitchell dr,virginia beach,va,23456
1099_101037711	101037711			winchester	va	22601	53	5	Thur, Mon, Fri, Tue, Wed			1	5	,winchester,va,22601
109_101020368	101020368	920 shenandoah ave		front royal	va	22630		10	Tue,	38.9301223755	-78.1989746094	0	2	920 shenandoah ave,front royal,va,22630
10_101013364	101013364	775 nickland dr		evington	va	24550		100	Mon, Fri, Wed	37.1911506653	-79.1935119629	0	3	775 nickland dr,evington,va,24550
1100_101037711	101037711			winchester	va	22601	53	70	Sun, Thur, Mon, Fri, Tue, Sat, Wed			1	7	,winchester,va,22601
1101_101037722	101037722	3055 george washington mem hwy		hayes	va	23072		20		37.2925109863	-76.5097351074	0	0	3055 george washington mem hwy,hayes,va,23072
1102_101037722	101037722	716 denbigh blvd	bldg. a-2	newport news	va	23608		40		37.1434783936	-76.5133285522	0	0	716 denbigh blvd,newport news,va,23608
1103_101037786	101037786	2616 sherwood hall ln		alexandria	va	22306		25		38.7433853149	-77.0774078369	0	0	2616 sherwood hall ln,alexandria,va,22306
1104_101037814	101037814	barnes ave		roanoke	va	24019	0	6	Sun, Sat			1	2	barnes ave,roanoke,va,24019
1105_101037814	101037814	5301 barnes ave		roanoke	va	24019	0	6	Sun, Sat	37.3320960999	-79.9769592285	1	2	5301 barnes ave,roanoke,va,24019
1106_101037816	101037816	6801 gov. g.c. peery hwy	clinch valley medical ctr	richlands	va	24641		50		37.0940055847	-81.8211135864	0	0	6801 gov. g.c. peery hwy,richlands,va,24641
1107_101037824	101037824	3512 blvd		colonial heights	va	23834	34,052,065	10	Sun, Thur, Mon, Fri, Tue, Sat, Wed, None			3	8	3512 blvd,colonial heights,va,23834
1108_101037826	101037826	8301 arlington blvd		fairfax	va	22031	44,052	15	Fri, Wed	38.8649978638	-77.2313919067	2	2	8301 arlington blvd,fairfax,va,22031
1109_101037866	101037866	fauquier hospital		warrenton	va	20187	0	5	Sun, Thur, Mon, Fri, Tue, Sat, Wed			1	7	fauquier hospital,warrenton,va,20187
110_101020374	101020374	university hospital	jefferson park ave	charlottesville	va	22908-0668	0	20	Thur, Mon, Fri, Tue, Wed			1	5	university hospital,charlottesville,va,22908-0668
1110_101037922	101037922	1800 town ctr dr, 317		reston	va	20190		50	Thur, Mon	38.9634056091	-77.364692688	0	2	1800 town ctr dr, 317,reston,va,20190
1111_101037952	101037952	4876 baxter rd		virginia beach	va	23462	44	100	Thur, Mon, Fri, Tue, Sat, Wed	36.8235015869	-76.1505203247	1	6	4876 baxter rd,virginia beach,va,23462
1112_101037964	101037964	901 enterprise pkwy		hampton	va	23666		10	Thur, Mon, Fri, Tue, Wed	37.0550727844	-76.4077835083	0	5	901 enterprise pkwy,hampton,va,23666
1113_101037964	101037964	5207 ctr st		williamsburg	va	23188		10	Fri	37.2795791626	-76.7430038452	0	1	5207 ctr st,williamsburg,va,23188
1114_101038004	101038004	lynchburg general hospital	tate springs rd.	lynchburg	va	24501		80	Sun, Thur, Mon, Fri, Tue, Sat, Wed			0	7	lynchburg general hospital,lynchburg,va,24501
1115_101038009	101038009	304 marcella rd ,		hampton	va	23666	52	40	Thur, Mon, Fri, Tue, Wed	37.0501708984	-76.3963623047	1	5	304 marcella rd ,,hampton,va,23666
1116_101038013	101038013	1200 e broad st	mcv dept of orthopaedics	richmond	va	23298		25	Mon, Fri, Wed	37.5393028259	-77.4311599731	0	3	1200 e broad st,richmond,va,23298
1117_101038029	101038029	1201 broad rock blvd		richmond	va	23249		25				0	0	1201 broad rock blvd,richmond,va,23249
1118_101038029	101038029	hemophilia treatment ctr	mcv station po box box980461	richmond	va	23298-0461		10	Tue			0	1	hemophilia treatment ctr,richmond,va,23298-0461
1119_101038030	101038030	hsc, box 800623		charlottesville	va	22908	0	25	Thur, Mon, Fri, Tue, Wed			1	5	hsc, box 800623,charlottesville,va,22908
111_101020388	101020388	6355 walker ln		alexandria	va	22310	52	40	Thur, Mon, Fri, Wed	38.7677841187	-77.1613311768	1	4	6355 walker ln,alexandria,va,22310
1120_101038031	101038031	13164 centerpointe way		woodbridge	va	22193	0	50	Thur, Wed	38.6670951843	-77.3346557617	1	2	13164 centerpointe way,woodbridge,va,22193
1121_101038031	101038031	13164 centerpoint way		woodbridge	va	22193	0	50	Fri, Sat	38.6670951843	-77.3346557617	1	2	13164 centerpoint way,woodbridge,va,22193
1122_101038048	101038048	4 pidgeon dr		sterling heights	va	20165		2		39.0387420654	-77.4127960205	0	0	4 pidgeon dr,sterling heights,va,20165
1123_101038078	101038078	133 maple ave e		vienna	va	22180		5	Tue	38.9020347595	-77.2637252808	0	1	133 maple ave e,vienna,va,22180
1124_101038093	101038093	46440 benedict dr	pedatric healthcare	sterling heights	va	20164		20	Wed	39.0250091553	-77.3950119019	0	1	46440 benedict dr,sterling heights,va,20164
1125_101038115	101038115	1900 electric rd	lewis gale medical ctr	salem	va	24153	0	25	Thur, Mon, Fri, Tue, Wed	37.2652511597	-80.0331344604	1	5	1900 electric rd,salem,va,24153
1126_101038117	101038117	6510 harbour view court		midlothian	va	23112		50	Thur, Mon, Fri, Tue, Wed	37.4094390869	-77.6575927734	0	5	6510 harbour view court,midlothian,va,23112
1127_101038130	101038130	855 kempsville rd		norfolk	va	23502	98	50	Thur, Mon, Fri, Tue, Sat, Wed	36.8501205444	-76.1918182373	1	6	855 kempsville rd,norfolk,va,23502
1128_101038155	101038155	6009 beech tree dr		alexandria	va	22310	23	20		38.7856292725	-77.0887985229	1	0	6009 beech tree dr,alexandria,va,22310
1129_101038172	101038172	1715 thomson dr		lynchburg	va	24501	23,021,026,052	25	Thur, Mon, Fri, Tue, Wed	37.4134941101	-79.1703720093	4	5	1715 thomson dr,lynchburg,va,24501
112_101020388	101020388	6355 walker ln		alexandria	va	22310	52	40	Thur, Mon, Fri, Tue, Wed	38.7677841187	-77.1613311768	1	5	6355 walker ln,alexandria,va,22310
1130_101038195	101038195	14000 crown court		woodbridge	va	22193	52,064	5	Thur, Tue, Wed	38.6500511169	-77.3109817505	2	3	14000 crown court,woodbridge,va,22193
1131_101038195	101038195	7001 heritage village plaza		gainesville	va	20155	28	5	Mon	38.8028945923	-77.601890564	1	1	7001 heritage village plaza,gainesville,va,20155
1132_101038196	101038196	1020 independence blvd		virginia beach	va	23455		25	Thur, Mon, Fri, Tue, Wed	36.8734169006	-76.1327362061	0	5	1020 independence blvd,virginia beach,va,23455
1133_101038197	101038197	1900 electric rd	lewis gale medical ctr	salem	va	24153		25	Mon, Tue	37.2652511597	-80.0331344604	0	2	1900 electric rd,salem,va,24153
1134_101038202	101038202	19465 deerfield ave		lansdowne	va	20176	98	25	Thur, Tue	39.0775222778	-77.4761352539	1	2	19465 deerfield ave,lansdowne,va,20176
1135_101038212	101038212	8400 n medical dr		mechanicsville	va	23116	0	50	Mon, Fri, Tue, Wed			1	4	8400 n medical dr,mechanicsville,va,23116
1136_101038212	101038212	7605 forest ave		richmond	va	23229	0	25	Thur, Mon, Fri, Tue, Wed	37.6035270691	-77.5442581177	1	5	7605 forest ave,richmond,va,23229
1137_101038229	101038229	1060 first colonial rd.	virginia beach general hospital	virginia beach	va	23454	0	10	Sun, Thur, Mon, Fri, Tue, Sat, Wed	36.8645172119	-76.028427124	1	7	1060 first colonial rd.,virginia beach,va,23454
1138_101038229	101038229	1700 will o wisp dr		virginia beach	va	23454		90		36.8631858826	-76.0271224976	0	0	1700 will o wisp dr,virginia beach,va,23454
1139_101038230	101038230	8300 boone blvd		vienna	va	22182		60	Mon, Fri, Wed	38.9172325134	-77.2321853638	0	3	8300 boone blvd,vienna,va,22182
113_101020407	101020407	736 battlefield blvd n	chesapeake regional medical ctr	chesapeake	va	23320	0	80	Sun, Thur, Mon, Fri, Tue, Sat, Wed	36.7463798523	-76.2448959351	1	7	736 battlefield blvd n,chesapeake,va,23320
1140_101038231	101038231	12 p g a dr		stafford	va	22554		20	Thur, Tue, Wed	38.4446182251	-77.39868927	0	3	12 p g a dr,stafford,va,22554
1141_101038252	101038252	1935 w main st		salem	va	24513		1		37.2882499695	-80.0911483765	0	0	1935 w main st,salem,va,24513
1142_101038273	101038273	university of virginia		charlottesville	va	22908	0	20				1	0	university of virginia,charlottesville,va,22908
1143_101038289	101038289	9010 lorton station blvd		lorton	va	22079		5	Sun, Sat	38.7129707336	-77.214515686	0	2	9010 lorton station blvd,lorton,va,22079
1144_101038289	101038289	1500 n beauregard		alexandria	va	22311		5		38.8279266357	-77.1268386841	0	0	1500 n beauregard,alexandria,va,22311
1145_101038315	101038315	10130 hull st rd		midlothian	va	23112		5	Sat	37.4431686401	-77.5820846558	0	1	10130 hull st rd,midlothian,va,23112
1146_101038315	101038315	10130 hull st rd		midlothian	va	23112		5	Sat	37.4431686401	-77.5820846558	0	1	10130 hull st rd,midlothian,va,23112
1147_101038330	101038330	110 workington ct		williamsburg	va	23188	52	50		37.30078125	-76.7988739014	1	0	110 workington ct,williamsburg,va,23188
1148_101038335	101038335	one health cir		lexington	va	24450	0	2	Tue	37.7794647217	-79.4428100586	1	1	one health cir,lexington,va,24450
1149_101038384	101038384	1011 e jefferson st		charlottesville	va	22901		10	Sun, Thur, Mon, Fri, Tue, Sat, Wed	38.029914856	-78.4725952148	0	7	1011 e jefferson st,charlottesville,va,22901
114_101020407	101020407	sentara norfolk general hospital		norfolk	va	23507	0	20	Sun, Sat			1	2	sentara norfolk general hospital,norfolk,va,23507
1150_101038398	101038398	1608 ownby ln		richmond	va	23222	0	20	Thur, Mon, Fri, Tue, Sat, Wed			1	6	1608 ownby ln,richmond,va,23222
1151_101038455	101038455	1900 electric rd		salem	va	24153		100	Sun, Thur, Mon, Fri, Tue, Sat, Wed	37.2654533386	-80.0331420898	0	7	1900 electric rd,salem,va,24153
1152_101038472	101038472	1201 e marshall st		richmond	va	23298		20		37.5405578613	-77.4313583374	0	0	1201 e marshall st,richmond,va,23298
1153_101038472	101038472	800 w leigh st		richmond	va		98	10	Mon			1	1	800 w leigh st,richmond,va,
1154_101038484	101038484	mary immaculate hospital		newport news	va	23602	0	50				1	0	mary immaculate hospital,newport news,va,23602
1155_101038497	101038497	14139 potomac mills rd		woodbridge	va	22192	53	5	Fri,	38.6383895874	-77.294052124	1	2	14139 potomac mills rd,woodbridge,va,22192
1156_101038497	101038497	2024 opitz bolv		woodbridge	va	22191	4,052	50	Thur, Mon, Tue, Wed	38.6342964172	-77.274887085	2	4	2024 opitz bolv,woodbridge,va,22191
1157_101038516	101038516	3600 joseph siewick dr		fairfax	va	22033		20	Sun, Thur, Mon, Fri, Tue, Sat, Wed	38.8874206543	-77.3792037964	0	7	3600 joseph siewick dr,fairfax,va,22033
1158_101042141	101042141	rte 460		blacksburg	va			15				0	0	rte 460,blacksburg,va,
1159_101038516	101038516	3600 joseph siewick dr	inova fair oaks hospital	fairfax	va	22032		20	Sun, Thur, Mon, Fri, Tue, Sat, Wed			0	7	3600 joseph siewick dr,fairfax,va,22032
115_101020596	101020596	8261 willowoaks corp dr		fairfax	va	22031	0	20	Sun, Thur, Mon, Fri, Tue, Sat, Wed	38.8636169434	-77.2301254272	1	7	8261 willowoaks corp dr,fairfax,va,22031
1160_101038531	101038531	franklin memorial hospital outpatient clinic		rocky mount	va	24151		5	Mon			0	1	franklin memorial hospital outpatient clinic,rocky mount,va,24151
1161_101038573	101038573	1035 nider blvd	joint expeditionary base little creek	virginia beach	va	23459-2731		10	Fri			0	1	1035 nider blvd,virginia beach,va,23459-2731
1162_101038588	101038588	1201 broad rock rd	hunter holmes mcguire veterans hospital	richmond	va	23249		50	Wed			0	1	1201 broad rock rd,richmond,va,23249
1163_101038618	101038618	600 gresham dr		norfolk	va	23507		15		36.8625640869	-76.304977417	0	0	600 gresham dr,norfolk,va,23507
1164_101038621	101038621	2819 n parham rd		richmond	va	23294	0	20	Fri, Wed	37.626373291	-77.5494232178	1	2	2819 n parham rd,richmond,va,23294
1165_101038627	101038627	15111 washington st		haymarket	va	20169		10	Tue	38.8130455017	-77.6383743286	0	1	15111 washington st,haymarket,va,20169
1166_101038637	101038637	1201 broad rock blvd	cardiology (111j)	richmond	va	23249		50	Sun, Thur, Mon, Fri, Tue, Sat, Wed			0	7	1201 broad rock blvd,richmond,va,23249
1167_101038652	101038652	4660 kenmore ave		alexandria	va	22304		25	Sun, Thur, Mon, Tue, Sat, Wed	38.8293762207	-77.1102905273	0	6	4660 kenmore ave,alexandria,va,22304
1168_101038652	101038652	6355 walker ln	inova health plex	alexandria	va	22310		25	Sun, Thur, Mon, Fri, Tue, Sat, Wed	38.7677841187	-77.1613311768	0	7	6355 walker ln,alexandria,va,22310
1169_101038652	101038652	4320 seminary rd		alexandria	va	22304		25	Sun, Thur, Mon, Fri, Tue, Sat, Wed	38.8243179321	-77.1054916382	0	7	4320 seminary rd,alexandria,va,22304
116_101020648	101020648	47340 blackwater falls terrace		sterling heights	va	20165		70	Thur, Mon, Fri, Tue, Wed	39.0414733887	-77.3611831665	0	5	47340 blackwater falls terrace,sterling heights,va,20165
1170_101038652	101038652	4320 seminary rd	inova alaxandria hospital	alexandria	va	22304		50	Sun, Thur, Mon, Fri, Tue, Sat, Wed	38.8243179321	-77.1054916382	0	7	4320 seminary rd,alexandria,va,22304
1171_101038652	101038652	4660 kenmore ave		alexandria	va	22304		25	Sun, Thur, Mon, Fri, Tue, Sat, Wed	38.8293762207	-77.1102905273	0	7	4660 kenmore ave,alexandria,va,22304
1172_101038655	101038655	7660 e parham rd,		richmond	va	23294		50		37.6305198669	-77.5272216797	0	0	7660 e parham rd,,richmond,va,23294
1173_101042444	101042444	217 mclaws cir		williamsburg	va	23185		20	Tue	37.2461204529	-76.6614151001	0	1	217 mclaws cir,williamsburg,va,23185
1174_101038664	101038664	1401 johnston-willis dr		richmond	va	23235	0	10	Thur, Mon, Fri, Tue, Wed	37.5107574463	-77.5973739624	1	5	1401 johnston-willis dr,richmond,va,23235
1175_101038670	101038670	7347 bell creek rd		mechanicsville	va	23111	0	20	Thur, Mon, Fri, Tue, Wed	37.6033554077	-77.3539733887	1	5	7347 bell creek rd,mechanicsville,va,23111
1176_101038671	101038671	1860 town ctr dr		reston	va	20190		50	Mon, Fri, Wed	38.9627113342	-77.3651199341	0	3	1860 town ctr dr,reston,va,20190
1177_101038682	101038682	camp 18 and wallens ridge prison		big stone gap	va			20	Mon,Wed,Fri,Mon,Wed,Fri,			0	7	camp 18 and wallens ridge prison,big stone gap,va,
1178_101038682	101038682	virginia prison camp 18		coeburn	va			20	Mon,Wed,Fri,			0	4	virginia prison camp 18,coeburn,va,
1179_101038692	101038692	1355 richmond ave		staunton	va	24401	98	30	Sun, Thur, Mon, Fri, Tue, Sat, Wed	38.1344795227	-79.0427780151	1	7	1355 richmond ave,staunton,va,24401
117_101020648	101020648	47340 blackwater falls terrace		sterling heights	va	20165		70		39.0414733887	-77.3611831665	0	0	47340 blackwater falls terrace,sterling heights,va,20165
1180_101038698	101038698	13901 coalfield commons pl		midlothian	va	23114		25	Tue	37.4937057495	-77.6522521973	0	1	13901 coalfield commons pl,midlothian,va,23114
1181_101038698	101038698	13901 coalfield commons pl siute 102		midlothian	va	23114		45	Mon, Fri, Wed	37.4937057495	-77.6522521973	0	3	13901 coalfield commons pl siute 102,midlothian,va,23114
1182_101038701	101038701	2112 hartford rd		hampton	va	23666		25	Thur, Mon, Fri, Tue, Wed	37.0469551086	-76.3946380615	0	5	2112 hartford rd,hampton,va,23666
1183_101038701	101038701	500 j clyde morris blvd		newport news	va	23601		25	Thur, Mon, Fri, Tue, Wed	37.0715827942	-76.4798049927	0	5	500 j clyde morris blvd,newport news,va,23601
1184_101038722	101038722	300 medical pkwy		chesapeake	va	23320	44,052	30	Thur, Tue	36.7446746826	-76.2466125488	2	2	300 medical pkwy,chesapeake,va,23320
1185_101038741	101038741	680 kingsborough sq		chesapeake	va	23320	0	5	Tue	36.7442817688	-76.2465438843	1	1	680 kingsborough sq,chesapeake,va,23320
1186_101038741	101038741	680 kingsborough sq		chesapeake	va	23320-4988		10	Tue, Wed	36.7442817688	-76.2465438843	0	2	680 kingsborough sq,chesapeake,va,23320-4988
1187_101038741	101038741	885 kempsville rd		norfolk	va	23502-3800	52	40	Thur, Mon, Fri, Tue, Wed	36.8501243591	-76.1917953491	1	5	885 kempsville rd,norfolk,va,23502-3800
1188_101038778	101038778	650 laurel		culpeper	va	22701		25	Wed	38.4576187134	-78.0155029297	0	1	650 laurel,culpeper,va,22701
1189_101038778	101038778	650 laurel ave		culpeper	va	22701		25		38.4576187134	-78.0155029297	0	0	650 laurel ave,culpeper,va,22701
118_101020663	101020663	19415 deerfield ave		lansdowne	va	20176	52	5	Thur, Tue	39.078754425	-77.4761047363	1	2	19415 deerfield ave,lansdowne,va,20176
1190_101038806	101038806	160 exeter dr. st. 104	winchester imaging	winchester	va	22603	21,023,052	5	Thur, Mon, Fri, Tue, Sat, Wed	39.2107849121	-78.1770629883	3	6	160 exeter dr. st. 104,winchester,va,22603
1191_101038806	101038806	160 exeter dr		winchester	va	22603	23,021	23	Thur, Mon, Fri, Tue, Wed	39.2113342285	-78.1767425537	2	5	160 exeter dr,winchester,va,22603
1192_101038825	101038825	600 gresham dr		norfolk	va	23507		2		36.8625640869	-76.304977417	0	0	600 gresham dr,norfolk,va,23507
1193_101038910	101038910	3000 coliseum dr		hampton	va	23666	0	10	Mon	37.0626373291	-76.3974456787	1	1	3000 coliseum dr,hampton,va,23666
1194_101038910	101038910	12720 mcmanus blvd		newport news	va	23602	0	10	Mon	37.143321991	-76.5119781494	1	1	12720 mcmanus blvd,newport news,va,23602
1195_101038916	101038916	1483 old bridge rd		woodbridge	va	22192	58	50	Thur, Mon, Tue, Sat	38.6728057861	-77.2589492798	1	4	1483 old bridge rd,woodbridge,va,22192
1196_101038918	101038918	10130 hull st rd		midlothian	va	23112	54	10	Sat	37.4431686401	-77.5820846558	1	1	10130 hull st rd,midlothian,va,23112
1197_101038924	101038924	955 harpersville rd		newport news	va	23601	0	25	Thur, Tue	37.0926628113	-76.4520950317	1	2	955 harpersville rd,newport news,va,23601
1198_101038924	101038924	955 harpersville rd		newport news	va	23601	0	25		37.0926628113	-76.4520950317	1	0	955 harpersville rd,newport news,va,23601
1199_101038926	101038926	8222 meadowbridge rd		mechanicsville	va	23116	23	80	Mon, Fri, Tue, Wed	37.6262626648	-77.3863067627	1	4	8222 meadowbridge rd,mechanicsville,va,23116
119_101020663	101020663	8501 arlington blvd		fairfax	va	22031	21,023,052,032	10	Thur, Mon, Fri, Tue, Wed	38.8653793335	-77.2388381958	4	5	8501 arlington blvd,fairfax,va,22031
11_101013569	101013569	mcv nelson clinic, mcv hospital		richmond	va	23298		20	Wed			0	1	mcv nelson clinic, mcv hospital,richmond,va,23298
1200_101038959	101038959	161 wadsworth dr		richmond	va	23236		40		37.4943275452	-77.5562591553	0	0	161 wadsworth dr,richmond,va,23236
1201_101038993	101038993	2010 health campus dr	dept of radiology, rockingham memorial hospital	harrisonburg	va	22801	34,048,052,053,054,000,000,000	100	Sun, Thur, Mon, Fri, Tue, Sat, Wed	38.4062919617	-78.8580322266	8	7	2010 health campus dr,harrisonburg,va,22801
1202_101039001	101039001	907 goose creek rd,	goose creek medical park	fishersville	va	22939		50	Mon,Tue,Wed,Thur,Fri,	38.1009025574	-78.9978103638	0	6	907 goose creek rd,,fishersville,va,22939
1203_101039060	101039060	3023 hamaker court		fairfax	va	22031	0	10	Tue	38.8671150208	-77.2372970581	1	1	3023 hamaker court,fairfax,va,22031
1204_101039172	101039172	8228 meadowbridge rd		mechanicsville	va	23116		30	Fri, Tue	37.6264457703	-77.3860549927	0	2	8228 meadowbridge rd,mechanicsville,va,23116
1205_101039172	101039172	9105 stony point dr		richmond	va	23235	0	30	Thur, Mon	37.5482063293	-77.5649795532	1	2	9105 stony point dr,richmond,va,23235
1206_101039173	101039173	600 gresham dr		norfolk	va	23507	52,058	2	Sun, Thur, Mon, Fri, Tue, Sat, Wed	36.8625640869	-76.304977417	2	7	600 gresham dr,norfolk,va,23507
1207_101039173	101039173	150 kingsley ln		norfolk	va	23505	52,058	85	Sun, Thur, Mon, Fri, Tue, Sat, Wed	36.8985748291	-76.2817764282	2	7	150 kingsley ln,norfolk,va,23505
1208_101039173	101039173	830 kempsville rd		norfolk	va	23502	52,058	3	Sun, Thur, Mon, Fri, Tue, Sat, Wed	36.8481025696	-76.1909179688	2	7	830 kempsville rd,norfolk,va,23502
1209_101039173	101039173	3636 high st		portsmouth	va	23707	52,058	10	Sun, Thur, Mon, Fri, Tue, Sat, Wed	36.8374977112	-76.3502120972	2	7	3636 high st,portsmouth,va,23707
120_101020737	101020737			fairfax	va	22033	52	2	Thur, Mon, Fri, Tue, Wed			1	5	,fairfax,va,22033
1210_101039182	101039182	2900 lamb cir		christiansburg	va	24073	52	50	Thur, Mon, Fri, Tue, Sat, Wed	37.0894927979	-80.50390625	1	6	2900 lamb cir,christiansburg,va,24073
1211_101039203	101039203	4 pidgeon hill dr		sterling heights	va	20165		30	Thur, Mon, Fri, Tue, Wed	39.0387420654	-77.4127960205	0	5	4 pidgeon hill dr,sterling heights,va,20165
1212_101039256	101039256	600 gresham dr		norfolk	va	23507		20	Thur, Mon, Fri, Tue, Wed	36.8625640869	-76.304977417	0	5	600 gresham dr,norfolk,va,23507
1213_101039260	101039260	3206 churchland blvd		chesapeake	va	23321	0	10	Wed	36.8657112122	-76.4073104858	1	1	3206 churchland blvd,chesapeake,va,23321
1214_101039260	101039260	300 marcella rd		hampton	va	23666	0	10	Thur, Mon, Fri, Tue, Wed	37.0501670837	-76.3963851929	1	5	300 marcella rd,hampton,va,23666
1215_101039260	101039260	508 baylor court		chesapeake	va	23320		20	Thur, Mon, Fri, Tue, Wed	36.7507095337	-76.2242584229	0	5	508 baylor court,chesapeake,va,23320
1216_101039260	101039260	2016 meade pkwy		suffolk	va	23434		10	Thur	36.7633781433	-76.5959243774	0	1	2016 meade pkwy,suffolk,va,23434
1217_101039260	101039260	rt 1 box 580		weems	va	22576	0	10	Mon			1	1	rt 1 box 580,weems,va,22576
1218_101039260	101039260	101 technology park dr		kilmarnock	va	22482		10	Mon	37.6968154907	-76.3894805908	0	1	101 technology park dr,kilmarnock,va,22482
1219_101039260	101039260	6160 kempsville circle,	smithfield building	norfolk	va	23502	0	40	Thur, Mon, Fri, Tue, Wed	36.8517227173	-76.194229126	1	5	6160 kempsville circle,,norfolk,va,23502
121_101020841	101020841	131 elden ct		herndon	va	20170		10		38.9669647217	-77.3719177246	0	0	131 elden ct,herndon,va,20170
1220_101039285	101039285	44055 riverside pkwy		leesburg	va	20176		1	Sat	39.0747489929	-77.4753723145	0	1	44055 riverside pkwy,leesburg,va,20176
1221_101039288	101039288	2001 crystal spring ave	crystal spring medical blding	roanoke	va	24014		50	Sun, Thur, Mon, Fri, Tue, Sat, Wed	37.2511062622	-79.9447250366	0	7	2001 crystal spring ave,roanoke,va,24014
1222_101039288	101039288	carilion roanoke memorial and community hospitals	bellview and elm avenues	roanoke	va	24033		50	Sun, Thur, Mon, Fri, Tue, Sat, Wed			0	7	carilion roanoke memorial and community hospitals,roanoke,va,24033
1223_101039305	101039305			front royal	va			10	Wed			0	1	,front royal,va,
1224_101039331	101039331	2173 upton dr		virginia beach	va	23454		1	Thur, Tue, Sat, Wed	36.7577171326	-76.0068054199	0	4	2173 upton dr,virginia beach,va,23454
1225_101039339	101039339	44035 riverside pkwy, 150		leesburg	va	20176	0	40	Thur, Mon, Fri, Tue, Wed	39.0767364502	-77.477180481	1	5	44035 riverside pkwy, 150,leesburg,va,20176
1226_101039339	101039339	8503 arlington blvd 120		fairfax	va	22031	0	30	Thur, Mon, Fri, Tue, Wed	38.8653793335	-77.238861084	1	5	8503 arlington blvd 120,fairfax,va,22031
1227_101039351	101039351	arlington blvd		fairfax	va			20	Thur			0	1	arlington blvd,fairfax,va,
1228_101039382	101039382	19450 deerfield dr 400		leesburg	va	20176		30	Thur, Mon, Fri, Tue, Wed	39.0777702332	-77.4756317139	0	5	19450 deerfield dr 400,leesburg,va,20176
1229_101039388	101039388	432 hospital dr		warrenton	va	20186		25	Thur, Mon, Fri, Tue, Wed	38.7132492065	-77.8105621338	0	5	432 hospital dr,warrenton,va,20186
122_101020902	101020902	411 w randolph rd		hopewell	va	23860		49	Thur, Tue	37.3075942993	-77.2922134399	0	2	411 w randolph rd,hopewell,va,23860
1230_101039390	101039390	n washington st		falls church	va	22046	98	10	Sat			1	1	n washington st,falls church,va,22046
1231_101039398	101039398	5320 providence rd		virginia beach	va	23464		20	Thur, Mon, Fri, Tue, Wed	36.8153305054	-76.1729812622	0	5	5320 providence rd,virginia beach,va,23464
1232_101039398	101039398	1925 glenn mitchell dr		virginia beach	va	23456		40	Thur, Mon, Fri, Tue, Wed	36.7770423889	-76.0969772339	0	5	1925 glenn mitchell dr,virginia beach,va,23456
1233_101039407	101039407	244 uriah branch way		emporia	va	23847		5	Thur	36.7379570007	-77.5144119263	0	1	244 uriah branch way,emporia,va,23847
1234_101039407	101039407	1200 farm rd		south boston	va	24592	0	5	Tue	36.7274780273	-78.9300231934	1	1	1200 farm rd,south boston,va,24592
1235_101039407	101039407	2892 mallory hill rd		burkeville	va	23922	0	5	Fri	37.1840553284	-78.180847168	1	1	2892 mallory hill rd,burkeville,va,23922
1236_101039407	101039407	5245 hornes st		eastville	va	23347	0	5	Thur			1	1	5245 hornes st,eastville,va,23347
1237_101039422	101039422	1000 n shenandoah ave		front royal	va	22630		25		38.9306259155	-78.198059082	0	0	1000 n shenandoah ave,front royal,va,22630
1238_101039422	101039422	12101 carol ln		fredericksburg	va	22407		15	Thur, Mon, Fri, Tue, Wed	38.2872619629	-77.5446853638	0	5	12101 carol ln,fredericksburg,va,22407
1239_101039422	101039422	501 sunset ln		culpeper	va	22701		25	Sun, Thur, Mon, Fri, Tue, Sat, Wed	38.4548950195	-78.0113601685	0	7	501 sunset ln,culpeper,va,22701
123_101028776	101028776	220 pump rd		richmond	va	23233		20	Mon	37.5947380066	-77.6076431274	0	1	220 pump rd,richmond,va,23233
1240_101039422	101039422	500 hospital dr		warrenton	va	20186		25	Sun, Thur, Mon, Fri, Tue, Sat, Wed, None	38.7116775513	-77.8095855713	0	8	500 hospital dr,warrenton,va,20186
1241_101039425	101039425	900 w third st		farmville	va	23901		5	Thur, Mon, Fri, Tue, Wed	37.3038101196	-78.4052505493	0	5	900 w third st,farmville,va,23901
1242_101039444	101039444	2501 parker's ln	inova mount vernon hospital	alexandria	va	22306		25		38.7393074036	-77.0742797852	0	0	2501 parker's ln,alexandria,va,22306
1243_101039444	101039444	111 michigan avenue, nw	children's national medical ctr	washington dc	va	22010		10	Sun, Thur, Mon, Fri, Tue, Sat, Wed			0	7	111 michigan avenue, nw,washington dc,va,22010
1244_101039444	101039444	4320 seminary rd	inova alexandria hospital	alexandria	va	22304		90	Sun, Thur, Mon, Fri, Tue, Sat, Wed	38.8243179321	-77.1054916382	0	7	4320 seminary rd,alexandria,va,22304
1245_101039444	101039444	2300 opitz blvd	interventional radiology, potomac hospital	woodbridge	va	22191		20	Thur, Mon, Fri, Tue, Wed	38.6368675232	-77.2854537964	0	5	2300 opitz blvd,woodbridge,va,22191
1246_101039458	101039458	5801 bremo rd		richmond	va	23226		10		37.5849761963	-77.5125350952	0	0	5801 bremo rd,richmond,va,23226
1247_101039463	101039463	4320 seminary rd.	inova alexandria hospital	alexandria	va	22304	52	1		38.8243179321	-77.1054916382	1	0	4320 seminary rd.,alexandria,va,22304
1248_101039464	101039464	601 innovation dr		chesapeake	va		98	50	Thur, Mon, Fri, Tue, Sat, Wed			1	6	601 innovation dr,chesapeake,va,
1249_101039466	101039466	7000 patterson ave		richmond	va	23226		33	Thur, Mon, Fri, Tue, Sat, Wed	37.5908813477	-77.5308761597	0	6	7000 patterson ave,richmond,va,23226
124_101020902	101020902	7601 forest ave		richmond	va	23229		1	Wed	37.6034698486	-77.5442733765	0	1	7601 forest ave,richmond,va,23229
1250_101039466	101039466	14400 sommerville court		midlothian	va	23113		33	Thur, Mon, Fri, Tue, Wed	37.5092506409	-77.6761932373	0	5	14400 sommerville court,midlothian,va,23113
1251_101039472	101039472	600 gresham dr		norfolk	va	23507		20		36.8625640869	-76.304977417	0	0	600 gresham dr,norfolk,va,23507
1252_101039506	101039506	1860 town ctr dr		reston	va	20190		10	Thur	38.9627113342	-77.3651199341	0	1	1860 town ctr dr,reston,va,20190
1253_101039512	101039512	1313 peters creek rd		roanoke	va	24017		50	Thur,	37.3000411987	-80.0070648193	0	2	1313 peters creek rd,roanoke,va,24017
1254_101039517	101039517	443 kempsville rd	the barry robinson ctr	norfolk	va	23502		67		36.8465881348	-76.1908874512	0	0	443 kempsville rd,norfolk,va,23502
1255_101039522	101039522	6845 elm st		mclean	va	22101		30	Thur, Mon, Tue, Wed	38.9361190796	-77.1809463501	0	4	6845 elm st,mclean,va,22101
1256_101043333	101043333	po box 4030		petersburg	va	23803	0	8	Fri			1	1	po box 4030,petersburg,va,23803
1257_101039528	101039528	1401 johnston willis dr		richmond	va	23235		50	Sun, Thur, Mon, Fri, Tue, Sat, Wed	37.5107574463	-77.5973739624	0	7	1401 johnston willis dr,richmond,va,23235
1258_101039528	101039528	johnston willis medical ctr	johnston willis dirve	chesterfield	va	23139		50				0	0	johnston willis medical ctr,chesterfield,va,23139
1259_101039531	101039531	1715 n george mason dr 206		arlington	va	22205		20	Thur, Wed	38.8891181946	-77.1286468506	0	2	1715 n george mason dr 206,arlington,va,22205
125_101020926	101020926	505 w leigh st		richmond	va	23220	0	50	Thur, Mon, Wed	37.5511550903	-77.4438247681	1	3	505 w leigh st,richmond,va,23220
1260_101039537	101039537	6999 carrollton pike		galax	va	24333	0	20	Wed	36.705329895	-80.8489303589	1	1	6999 carrollton pike,galax,va,24333
1261_101039541	101039541	1201 broad rock run		richmond	va	23249	0	25	Tue			1	1	1201 broad rock run,richmond,va,23249
1262_101039541	101039541	9000 stony point pkwy		richmond	va	23235		5	Mon	37.5527992249	-77.5653839111	0	1	9000 stony point pkwy,richmond,va,23235
1263_101039557	101039557	500 j clyde morris blvd		newport news	va	23601	98	20	Wed	37.0715827942	-76.4798049927	1	1	500 j clyde morris blvd,newport news,va,23601
1264_101039560	101039560	8220 meadowbridge rd		mechanicsville	va	23116	0	50	Thur, Mon, Fri, Tue, Wed	37.6269607544	-77.3852996826	1	5	8220 meadowbridge rd,mechanicsville,va,23116
1265_101039574	101039574	4000 coliseum dr		hampton	va	23666	0	20	Thur, Mon, Tue, Wed	37.0626106262	-76.3974609375	1	4	4000 coliseum dr,hampton,va,23666
1266_101039574	101039574	7547 medical dr		gloucester	va	23061	0	10	Mon, Fri, Tue, Wed	37.4193382263	-76.5397567749	1	4	7547 medical dr,gloucester,va,23061
1267_101039574	101039574	11803 jefferson ave		newport news	va	23601	0	30	Thur, Mon, Fri, Tue, Wed	37.0851745605	-76.4825439453	1	5	11803 jefferson ave,newport news,va,23601
1268_101039588	101039588	5838 harbour view boulevard,		suffolk	va	23435	52	5	Wed	36.8758468628	-76.4383621216	1	1	5838 harbour view boulevard,,suffolk,va,23435
1269_101039599	101039599	404 airport dr		danville	va	24540		50	Thur, Mon, Fri, Tue, Wed	36.5784950256	-79.3415527344	0	5	404 airport dr,danville,va,24540
126_101020926	101020926	505 w leigh st		richmond	va	23220	0	50	Mon, Fri, Wed	37.5511550903	-77.4438247681	1	3	505 w leigh st,richmond,va,23220
1270_101039610	101039610	1990 holton ave e	wellmont lonesome pine hospital	big stone gap	va	24219	0	100	Sun, Thur, Mon, Fri, Tue, Sat, Wed	36.8765144348	-82.7568054199	1	7	1990 holton ave e,big stone gap,va,24219
1271_101039613	101039613	rivermont rd		lynchburg	va	24503	98	5	Thur			1	1	rivermont rd,lynchburg,va,24503
1272_101039620	101039620	401 e main st		dublin	va			10	Thur, Mon, Fri, Tue, Wed	37.1055679321	-80.6839675903	0	5	401 e main st,dublin,va,
1273_101039620	101039620	carillion new river valley medical ctr		radford	va	24141		15	Sun, Thur, Mon, Fri, Tue, Wed			0	6	carillion new river valley medical ctr,radford,va,24141
1274_101039671	101039671	7385 walker ave	sanders nursing home	gloucester	va	23061	0	15	Sun, Thur, Mon, Fri, Tue, Sat, Wed	37.4151000977	-76.5266036987	1	7	7385 walker ave,gloucester,va,23061
1275_101039672	101039672	5801 bremo rd	st mary's hospital	richmond	va	23226		15	Sun, Thur, Mon, Fri, Tue, Sat, Wed	37.5850143433	-77.5125274658	0	7	5801 bremo rd,richmond,va,23226
1276_101039672	101039672	1500 n 28th st	richmond community hospital	richmond	va	23223		5	Thur, Mon, Fri, Tue, Wed	37.540348053	-77.4068069458	0	5	1500 n 28th st,richmond,va,23223
1277_101039672	101039672	13700 st. francis blvd	st francis medical ctr	midlothian	va	23114		5		37.4655723572	-77.6589813232	0	0	13700 st. francis blvd,midlothian,va,23114
1278_101039679	101039679	910 w mercury blvd		hampton	va	23666		10		37.044216156	-76.3757629395	0	0	910 w mercury blvd,hampton,va,23666
1279_101039689	101039689	jefferson ave		pulaski	va	24301	0	5	Thur			1	1	jefferson ave,pulaski,va,24301
127_101020974	101020974	333 s glebe road,		arlington	va	22204	0	30	Thur, Mon, Fri, Tue, Sat, Wed	38.8680267334	-77.0958557129	1	6	333 s glebe road,,arlington,va,22204
1280_101039708	101039708	78 medical ctr dr		fishersville	va	22939		50		38.0940818787	-78.9853439331	0	0	78 medical ctr dr,fishersville,va,22939
1281_101039721	101039721	8501 arlington blvd		fairfax	va	22031	54	5	Wed	38.8653793335	-77.2388381958	1	1	8501 arlington blvd,fairfax,va,22031
1282_101039737	101039737	5899 bremo rd		richmond	va	23226		40		37.5838508606	-77.5138168335	0	0	5899 bremo rd,richmond,va,23226
1283_101039753	101039753			millboro	va			10	Wed			0	1	,millboro,va,
1284_101039755	101039755	100 emancipation dr		hampton	va	23667		80	Sun, Thur, Mon, Fri, Tue, Sat, Wed	37.0225372314	-76.3307647705	0	7	100 emancipation dr,hampton,va,23667
1285_101039790	101039790	7605 forest ave		richmond	va	23229		20	Fri	37.6035270691	-77.5442581177	0	1	7605 forest ave,richmond,va,23229
1286_101039790	101039790	7425 lee davis rd		mechanicsville	va	23111	0	80	Thur, Mon, Tue, Wed	37.6094856262	-77.3389358521	1	4	7425 lee davis rd,mechanicsville,va,23111
1287_101039798	101039798	1840 amherst st.	winchester medical ctr	winchester	va	22601	000,098	80	Sun, Thur, Mon, Fri, Tue, Sat, Wed	39.1917381287	-78.1917114258	2	7	1840 amherst st.,winchester,va,22601
1288_101039803	101039803	459 locust ave		charlottesville	va	22902		70	Sun, Thur, Mon, Fri, Tue, Sat, Wed, None	38.0324821472	-78.4720535278	0	8	459 locust ave,charlottesville,va,22902
1289_101039805	101039805	11440 commerce park dr		reston	va	20191	52	50	Fri, Tue	38.9469566345	-77.3414382935	1	2	11440 commerce park dr,reston,va,20191
128_101020981	101020981	8719 forest hill ave		richmond	va	23235		50	Thur, Mon, Fri, Tue, Wed	37.534122467	-77.5591888428	0	5	8719 forest hill ave,richmond,va,23235
1290_101039807	101039807	8260 atlee rd		mechanicsville	va	23116		10	Sun, Thur, Mon, Fri, Tue, Sat, Wed	37.6271629333	-77.3888015747	0	7	8260 atlee rd,mechanicsville,va,23116
1291_101039820	101039820	421 church st ne,suite a		vienna	va	22180	58	20	Wed	38.9085159302	-77.25831604	1	1	421 church st ne,suite a,vienna,va,22180
1292_101039820	101039820	6858 old dominion dr		mclean	va	22101	4,052	10	Thur, Sat	38.9360923767	-77.1821517944	2	2	6858 old dominion dr,mclean,va,22101
1293_101039827	101039827	8260 atlee rd	memorial regional medical ctr	mechanicsville	va	23116		50	Sun, Thur, Mon, Fri, Tue, Sat, Wed	37.6289749146	-77.388168335	0	7	8260 atlee rd,mechanicsville,va,23116
1294_101039831	101039831	10530 linden lake plaza 305		manassas	va	20109-6434		40		38.7955474854	-77.5124740601	0	0	10530 linden lake plaza 305,manassas,va,20109-6434
1295_101039832	101039832	716 denbigh boulevard,		newport news	va	23608	0	30	Thur, Mon	37.1434783936	-76.5133285522	1	2	716 denbigh boulevard,,newport news,va,23608
1296_101039848	101039848	2107 rosalind ave		roanoke	va	24014		50	Thur, Mon, Fri	37.250164032	-79.9474029541	0	3	2107 rosalind ave,roanoke,va,24014
1297_101039856	101039856	2075 glenn mitchell dr		virginia beach	va	23456		5	Thur, Mon, Fri, Tue, Wed	36.7748413086	-76.0960159302	0	5	2075 glenn mitchell dr,virginia beach,va,23456
1298_101039856	101039856	612 kingsborough sq		chesapeake	va	23320-5041		20	Thur, Mon, Fri, Tue, Wed	36.7433433533	-76.2462005615	0	5	612 kingsborough sq,chesapeake,va,23320-5041
1299_101039857	101039857	130 walker st		lexington	va	24450		15	Tue	37.778591156	-79.4354324341	0	1	130 walker st,lexington,va,24450
129_101021006	101021006	1722 s jefferson st		roanoke	va	24014		100	Sun, Thur, Mon, Fri, Tue, Sat, Wed	37.2558326721	-79.9420928955	0	7	1722 s jefferson st,roanoke,va,24014
12_101013987	101013987	146 hill dr		fincastle	va	24090	0	100	Thur, Mon, Tue, Wed	37.4822044373	-79.8960723877	1	4	146 hill dr,fincastle,va,24090
1300_101039862	101039862	8320 old courthouse road,suite 100		vienna	va	22182		10	Fri	38.9150810242	-77.2344360352	0	1	8320 old courthouse road,suite 100,vienna,va,22182
1301_101039898	101039898	1401 johnston-willis dr		richmond	va	23225	0	80	Thur, Fri, Tue, Wed			1	4	1401 johnston-willis dr,richmond,va,23225
1302_101039927	101039927	105 holly hill dr		petersburg	va	23805		25	Thur	37.2001800537	-77.3747558594	0	1	105 holly hill dr,petersburg,va,23805
1303_101039927	101039927	1850 pocahontas trail		quinton	va	23141	0	30	Fri	37.5128059387	-77.195602417	1	1	1850 pocahontas trail,quinton,va,23141
1304_101039963	101039963	6160 kempsville rd		norfolk	va	23502	0	1		36.8517227173	-76.194229126	1	0	6160 kempsville rd,norfolk,va,23502
1305_101039977	101039977	902 s jefferson st upper level		roanoke	va	24016	98,052	10	Thur, Mon, Fri, Tue, Wed	37.265827179	-79.9409332275	2	5	902 s jefferson st upper level,roanoke,va,24016
1306_101039977	101039977	102 highland ave		roanoke	va	24013	98	20	Thur, Mon, Fri, Tue, Wed	37.2649612427	-79.9396820068	1	5	102 highland ave,roanoke,va,24013
1307_101039977	101039977	150 spartan dr		salem	va	24153	98	20	Thur, Mon, Fri, Tue, Wed	37.2914199829	-80.0803833008	1	5	150 spartan dr,salem,va,24153
1308_101039982	101039982	13911 st francis blvd		midlothian	va	23114	1,017	30	Thur, Mon, Fri, Tue, Wed	37.4659576416	-77.6620178223	2	5	13911 st francis blvd,midlothian,va,23114
1309_101039982	101039982	13911 st francis blvd		midlothian	va	23114		10	Thur, Mon, Tue, Wed	37.4659576416	-77.6620178223	0	4	13911 st francis blvd,midlothian,va,23114
130_101021014	101021014	6605 w broad street,		richmond	va	23230		1	Thur, Mon, Fri, Tue, Wed	37.6020812988	-77.5151367188	0	5	6605 w broad street,,richmond,va,23230
1310_101040021	101040021	1950 glenn mitchell dr		virginia beach	va	23456		10	Mon	36.7758026123	-76.0975189209	0	1	1950 glenn mitchell dr,virginia beach,va,23456
1311_101040026	101040026	12560 w creek pkwy		richmond	va	23238		10	Thur, Tue	37.606464386	-77.6482467651	0	2	12560 w creek pkwy,richmond,va,23238
1312_101040027	101040027	900 s washington st		falls church	va	22046	12,021,052	30	Tue	38.8789863586	-77.1869888306	3	1	900 s washington st,falls church,va,22046
1313_101040044	101040044	1635 n george mason dr		arlington	va	22205		20	Mon, Fri, Wed	38.8887329102	-77.1273803711	0	3	1635 n george mason dr,arlington,va,22205
1314_101040057	101040057	22648 glenn dr 103		sterling heights	va	20164	12,052	10	Thur, Tue	38.9894294739	-77.423034668	2	2	22648 glenn dr 103,sterling heights,va,20164
1315_101040065	101040065	860 omni blvd		newport news	va	23606		50	Mon, Tue, Wed	37.0866775513	-76.4663619995	0	3	860 omni blvd,newport news,va,23606
1316_101040065	101040065			williamsburg	va	23188		60	Thur, Wed			0	2	,williamsburg,va,23188
1317_101040079	101040079	9407 cumberland rd		new kent	va	23124	0	20	Wed	37.5450668335	-76.9807510376	1	1	9407 cumberland rd,new kent,va,23124
1318_101040080	101040080	3833 fairfax dr		arlington	va	22203	0	15	Thur	38.8829307556	-77.1063232422	1	1	3833 fairfax dr,arlington,va,22203
1319_101040095	101040095	736 battlefield blvd. n.	cancer treatment ctr	chesapeake	va	23505	0	75	Thur, Mon, Fri, Tue, Wed			1	5	736 battlefield blvd. n.,chesapeake,va,23505
131_101021023	101021023	1417 n battlefield blvd		chesapeake	va	23320		40	Mon	36.7668075562	-76.2518081665	0	1	1417 n battlefield blvd,chesapeake,va,23320
1320_101040118	101040118	35771 snake hill rd,		middleburg	va	20117	0	5	Wed	39.0015563965	-77.7684860229	1	1	35771 snake hill rd,,middleburg,va,20117
1321_101040164	101040164	7660 e parham rd		richmond	va	23294		10	Mon	37.6305198669	-77.5272216797	0	1	7660 e parham rd,richmond,va,23294
1322_101040202	101040202	2832 juniper st		fairfax	va	22031	0	30	Fri, Tue, Wed	38.8748703003	-77.2287445068	1	3	2832 juniper st,fairfax,va,22031
1323_101040213	101040213	250 w brambleton ave		norfolk	va	23510	0	10	Thur, Mon, Fri, Tue, Wed	36.8543395996	-76.2928161621	1	5	250 w brambleton ave,norfolk,va,23510
1324_101040213	101040213	300 medical pkwy		chesapeake	va	23320	0	30	Thur, Mon, Fri, Tue, Wed	36.7446746826	-76.2466125488	1	5	300 medical pkwy,chesapeake,va,23320
1325_101040257	101040257	100 emancipation dr.	virginia medical ctr	hampton	va	23667		20	Wed	37.022518158	-76.3307800293	0	1	100 emancipation dr.,hampton,va,23667
1326_101040314	101040314	stony point pkwy		richmond	va			5	Mon			0	1	stony point pkwy,richmond,va,
1327_101040335	101040335	300 medical pkwy	206	chesapeake	va	23320	0	30	Mon	36.7446746826	-76.2466125488	1	1	300 medical pkwy,chesapeake,va,23320
1328_101040335	101040335	307 medical tower		norfolk	va	23507	0	20	Wed			1	1	307 medical tower,norfolk,va,23507
1329_101040343	101040343		po box box 2255	kilmarnock	va	22482		5	Sat			0	1	,kilmarnock,va,22482
132_101021044	101021044	1051 loftis blvd building 100		newport news	va	23606		50		37.0837936401	-76.4858627319	0	0	1051 loftis blvd building 100,newport news,va,23606
1330_101040377	101040377	3023 hamaker court,		fairfax	va	22031	4,021,052	30	Tue, Wed	38.8671150208	-77.2372970581	3	2	3023 hamaker court,,fairfax,va,22031
1331_101040389	101040389	1011 e jefferson st		charlottesville	va	22902	52	15	Sun, Thur, Mon, Fri, Tue, Sat, Wed	38.0299339294	-78.4719619751	1	7	1011 e jefferson st,charlottesville,va,22902
1332_101040397	101040397	6161 kempsville cir		norfolk	va	23502	0	25	Thur, Mon, Fri, Tue, Wed	36.8517227173	-76.194229126	1	5	6161 kempsville cir,norfolk,va,23502
1333_101040400	101040400	9000 stony point pkwy		richmond	va	23235	98	40	Fri, Tue	37.5527992249	-77.5653839111	1	2	9000 stony point pkwy,richmond,va,23235
1334_101040413	101040413	3300 gallows rd		falls church	va	22042		10	Thur, Mon, Fri, Tue, Wed	38.8587532043	-77.2261123657	0	5	3300 gallows rd,falls church,va,22042
1335_101040459	101040459	7301 forest ave		richmond	va	23226		50	Thur	37.6048812866	-77.5338287354	0	1	7301 forest ave,richmond,va,23226
1336_101040475	101040475	1326 e. little creek rd	little creek medical associates	norfolk	va	23518	0	5	Sun, Thur, Mon, Fri, Tue, Sat, Wed	36.9159927368	-76.2359008789	1	7	1326 e. little creek rd,norfolk,va,23518
1337_101040476	101040476	160 kingsley ln		norfolk	va	23505	98	40	Thur	36.8985824585	-76.2817993164	1	1	160 kingsley ln,norfolk,va,23505
1338_101040499	101040499	410 marcella dr		hampton	va	23666		10	Fri	37.0496253967	-76.3993377686	0	1	410 marcella dr,hampton,va,23666
1339_101040499	101040499	410 marcella dr		hampton	va	23666	52	10	Fri	37.0496253967	-76.3993377686	1	1	410 marcella dr,hampton,va,23666
133_101021068	101021068	9536 hospital ave		nassawadox	va	23413	52	5	Thur, Tue, Wed	37.4755172729	-75.8617553711	1	3	9536 hospital ave,nassawadox,va,23413
1340_101040502	101040502	1564 laskin rd	unit 192	virginia beach	va	23451	0	30	Fri, Tue	36.851360321	-76.0198974609	1	2	1564 laskin rd,virginia beach,va,23451
1341_101040502	101040502	harbourview blvd		suffolk	va			15	Mon			0	1	harbourview blvd,suffolk,va,
1342_101040514	101040514	315 w 10th st/		front royal	va	22630	0	5		38.9309768677	-78.2000579834	1	0	315 w 10th st/,front royal,va,22630
1343_101040528	101040528	2200 opitz blvd	250	woodbridge	va	22191		50	Mon, Wed	38.633392334	-77.2793197632	0	2	2200 opitz blvd,woodbridge,va,22191
1344_101040532	101040532	3300 gallows rd		falls church	va	22042		10	Fri	38.8587532043	-77.2261123657	0	1	3300 gallows rd,falls church,va,22042
1345_101040562	101040562	601 innovation dr		chesapeake	va	23320	21,052	50	Thur, Mon, Fri, Tue, Sat, Wed	36.7350120544	-76.2189254761	2	6	601 innovation dr,chesapeake,va,23320
1346_101040588	101040588	112 gainsborough square,		chesapeake	va	23320	0	40	Thur, Mon, Fri, Tue, Wed	36.7422866821	-76.2419967651	1	5	112 gainsborough square,,chesapeake,va,23320
1347_101040588	101040588	5701 cleveland street,		virginia beach	va	23462		30	Thur, Mon, Fri, Tue, Wed	36.8469085693	-76.1771240234	0	5	5701 cleveland street,,virginia beach,va,23462
1348_101040610	101040610	500 j. clyde morris blvd	riverside regional medical ctr	newport news	va	23601		5	Sun, Sat	37.0715827942	-76.4798049927	0	2	500 j. clyde morris blvd,newport news,va,23601
1349_101040623	101040623	401 n great neck rd		virginia beach	va	23454		50	Thur, Fri, Wed	36.8456726074	-76.0491333008	0	3	401 n great neck rd,virginia beach,va,23454
134_101021082	101021082	400 westhampton station		richmond	va	23226	21,052	30	Fri, Wed	37.5664138794	-77.5411148071	2	2	400 westhampton station,richmond,va,23226
1350_101040623	101040623	401 n great neck rd		virginia beach	va	23454	54	50	Thur, Mon, Fri, Tue, Wed	36.8456726074	-76.0491333008	1	5	401 n great neck rd,virginia beach,va,23454
1351_101040647	101040647	2012 meade pkwy		suffolk	va	23434		20	Thur	36.7635040283	-76.5958938599	0	1	2012 meade pkwy,suffolk,va,23434
1352_101040647	101040647	3300 high st		portsmouth	va	23707		30	Wed	36.8344764709	-76.3417358398	0	1	3300 high st,portsmouth,va,23707
1353_101040655	101040655	2118 rosiland		roanoke	va	24014		40	Mon	37.250087738	-79.9468994141	0	1	2118 rosiland,roanoke,va,24014
1354_101040683	101040683	2829 shore dr		virginia beach	va	23451	21	10	Tue	36.9116821289	-76.0689086914	1	1	2829 shore dr,virginia beach,va,23451
1355_101040696	101040696	14527 jeff davis hwy		woodbridge	va	22191-2823	28,052,064,099	40	Thur, Mon, Fri, Tue, Sat, Wed			4	6	14527 jeff davis hwy,woodbridge,va,22191-2823
1356_101040696	101040696	3302 b old bridge rd	urgent medical care of lake ridge, inc	lake ridge	va	22192-5262	28,064,054,099	20	Thur, Mon, Fri, Tue, Sat, Wed			4	6	3302 b old bridge rd,lake ridge,va,22192-5262
1357_101040696	101040696	7598 telegraph rd		alexandria	va	22315	28,052,064	10	Thur, Mon, Fri, Tue, Sat, Wed	38.7519874573	-77.1398239136	3	6	7598 telegraph rd,alexandria,va,22315
1358_101040699	101040699	14370 lee hwy		gainesville	va	20155		10	Tue	38.7945327759	-77.62059021	0	1	14370 lee hwy,gainesville,va,20155
1359_101043333	101043333			marion	va	24354		3	Thur, Mon, Fri, Tue			0	4	,marion,va,24354
135_101021082	101021082	11601 ironbridge road,		chester	va	23831	52	20	Mon	37.3567466736	-77.4925537109	1	1	11601 ironbridge road,,chester,va,23831
1360_101040769	101040769	3930 walnut st		fairfax	va	22030	8,028,052	25	Mon, Wed	38.8533973694	-77.3177947998	3	2	3930 walnut st,fairfax,va,22030
1361_101040782	101040782	3650 joseph siewick dr		fairfax	va	22033		50	Mon, Fri, Wed	38.8875617981	-77.3793334961	0	3	3650 joseph siewick dr,fairfax,va,22033
1362_101040784	101040784	200 hospital dr		galax	va	24333	0	2	Sun, Thur, Mon, Fri, Tue, Sat, Wed	36.6717948914	-80.923866272	1	7	200 hospital dr,galax,va,24333
1363_101040848	101040848	3810 nine mile rd	glen echo building	henrico	va	23223	52	30	Thur, Tue, Wed	37.5419197083	-77.3834533691	1	3	3810 nine mile rd,henrico,va,23223
1364_101040856	101040856	2 bernardine dr		newport news	va	23602	0	50	Sun, Mon, Fri, Tue, Sat, Wed	37.144443512	-76.511177063	1	6	2 bernardine dr,newport news,va,23602
1365_101040867	101040867	100 emancipation dr		hampton	va	23667	0	50	Thur, Mon, Tue	37.0225372314	-76.3307647705	1	3	100 emancipation dr,hampton,va,23667
1366_101040896	101040896	2200 opitz blvd		woodbridge	va	22191		10	Sun, Thur, Mon, Fri, Tue, Sat, Wed	38.633392334	-77.2793197632	0	7	2200 opitz blvd,woodbridge,va,22191
1367_101040896	101040896	4320 seminary rd		alexandria	va	22304		10	Sun, Thur, Mon, Fri, Tue, Sat, Wed	38.8243179321	-77.1054916382	0	7	4320 seminary rd,alexandria,va,22304
1368_101040896	101040896	6355 walker ln	inova health plex	alexandria	va	22310		10	Sun, Thur, Mon, Fri, Tue, Sat, Wed	38.7677841187	-77.1613311768	0	7	6355 walker ln,alexandria,va,22310
1369_101040896	101040896	4660 kenmore ave		alexandria	va	22304		20	Sun, Thur, Mon, Fri, Tue, Sat, Wed	38.8293762207	-77.1102905273	0	7	4660 kenmore ave,alexandria,va,22304
136_101021082	101021082	2015 waterside rd		prince george	va	23875		5	Tue, Wed	37.2496604919	-77.3667678833	0	2	2015 waterside rd,prince george,va,23875
1370_101040896	101040896	2501 parker's ln	inova mount vernon hospital	alexandria	va	22306		10	Sun, Thur, Mon, Fri, Tue, Sat, Wed	38.7393074036	-77.0742797852	0	7	2501 parker's ln,alexandria,va,22306
1371_101040896	101040896	4660 kenmore ave		alexandria	va	22304		10	Sun, Thur, Mon, Fri, Tue, Sat, Wed	38.8293762207	-77.1102905273	0	7	4660 kenmore ave,alexandria,va,22304
1372_101040896	101040896	4315 chain bridge rd	access of fairfax	fairfax	va	22030		10	Sun, Thur, Mon, Fri, Tue, Sat, Wed	38.8380470276	-77.3119277954	0	7	4315 chain bridge rd,fairfax,va,22030
1373_101040905	101040905	46161 westlake dr		sterling heights	va	20165		25	Thur, Mon, Fri, Tue, Wed	39.0348091125	-77.4020004272	0	5	46161 westlake dr,sterling heights,va,20165
1374_101040905	101040905	46161 westlake dr		sterling heights	va	20165		25	Thur, Mon, Fri, Tue, Wed	39.0348091125	-77.4020004272	0	5	46161 westlake dr,sterling heights,va,20165
1375_101040914	101040914	420 w jubal early dr		winchester	va	22601		40	Mon, Fri	39.170135498	-78.1801528931	0	2	420 w jubal early dr,winchester,va,22601
1376_101040926	101040926	2765 jefferson davis hwy		stafford	va	22554		10	Thur, Mon, Fri, Tue	38.4560852051	-77.4063110352	0	4	2765 jefferson davis hwy,stafford,va,22554
1377_101040943	101040943	375 hershberger rd		roanoke	va		0	20	Thur			1	1	375 hershberger rd,roanoke,va,
1378_101040943	101040943	395 s main st		rocky mount	va	24151	0	5	Tue	36.99243927	-79.8896636963	1	1	395 s main st,rocky mount,va,24151
1379_101040945	101040945	416 s main st		hillsville	va	24343	0	10	Thur, Mon, Fri, Tue, Sat, Wed	36.7566642761	-80.7332305908	1	6	416 s main st,hillsville,va,24343
137_101021082	101021082	1850 pocahontas trail		quinton	va	23141	0	10	Mon, Tue	37.5128059387	-77.195602417	1	2	1850 pocahontas trail,quinton,va,23141
1380_101040945	101040945	416 s main st		hillsville	va	24343	52,000	10	Thur, Mon, Fri, Tue, Sat, Wed	36.7566642761	-80.7332305908	2	6	416 s main st,hillsville,va,24343
1381_101040954	101040954	1400 johnston willis dr		richmond	va	23235		2	Fri	37.517124176	-77.5987243652	0	1	1400 johnston willis dr,richmond,va,23235
1382_101040958	101040958	2841 duke st		alexandria	va	22304		20	Sat	38.8072547913	-77.0796508789	0	1	2841 duke st,alexandria,va,22304
1383_101040959	101040959	6355 walker ln		alexandria	va	22310	52	20	Tue	38.7677841187	-77.1613311768	1	1	6355 walker ln,alexandria,va,22310
1384_101040959	101040959	6231 leesburg pike608		falls church	va	22044	000,052	20	Fri	38.8677597046	-77.152305603	2	1	6231 leesburg pike608,falls church,va,22044
1385_101040959	101040959	3650 joseph siewick dr 102		fairfax	va	22033	0	20	Fri	38.8875617981	-77.3793334961	1	1	3650 joseph siewick dr 102,fairfax,va,22033
1386_101040959	101040959	7440 spring village dr		springfield	va	22150	0	20	Tue	38.7673835754	-77.2026748657	1	1	7440 spring village dr,springfield,va,22150
1387_101040963	101040963	8719 forest hill ave		richmond	va	23235		50	Thur, Mon, Fri, Tue, Wed	37.534122467	-77.5591888428	0	5	8719 forest hill ave,richmond,va,23235
1388_101040963	101040963	8719 forest hill ave		bon air	va	23235	52	50	Thur, Mon, Fri, Tue, Wed	37.534122467	-77.5591888428	1	5	8719 forest hill ave,bon air,va,23235
1389_101040974	101040974	3300 gallows rd	dept of radiology	falls church	va	22042	34,044,055,004	15	Sun, Thur, Mon, Fri, Tue, Sat, Wed	38.8587532043	-77.2261123657	4	7	3300 gallows rd,falls church,va,22042
138_101021185	101021185	3340 woodburn rd		annandale	va	22003	52	12	Thur	38.8556632996	-77.2273254395	1	1	3340 woodburn rd,annandale,va,22003
1390_101040977	101040977	8501 arlington blvd		fairfax	va	22031	0	10	Thur	38.8653793335	-77.2388381958	1	1	8501 arlington blvd,fairfax,va,22031
1391_101040980	101040980	6404c seven corners pl		falls church	va	22044	44,052,053,055,058	10	Thur, Wed	38.8708267212	-77.1581726074	5	2	6404c seven corners pl,falls church,va,22044
1392_101041006	101041006	2323 memorial ave		lynchburg	va	24526		10	Wed	37.4040260315	-79.1670913696	0	1	2323 memorial ave,lynchburg,va,24526
1393_101041008	101041008	95 harris rd	building 5	kilmarnock	va	22482		2	Fri	37.7058334351	-76.3937149048	0	1	95 harris rd,kilmarnock,va,22482
1394_101041068	101041068	2207 peters creek rd		roanoke	va	24019	98,054	10	Mon, Sat	37.3118057251	-80.0058364868	2	2	2207 peters creek rd,roanoke,va,24019
1395_101041083	101041083	111 medical pkwy		chesapeake	va	23320	28	50	Thur	36.7449874878	-76.244140625	1	1	111 medical pkwy,chesapeake,va,23320
1396_101041083	101041083	844 kempsville rd		norfolk	va	23502		50	Tue	36.8499412537	-76.1914215088	0	1	844 kempsville rd,norfolk,va,23502
1397_101041085	101041085	112 gainsborough sq		chesapeake	va	23320		10	Wed	36.7422866821	-76.2419967651	0	1	112 gainsborough sq,chesapeake,va,23320
1398_101041102	101041102	3300 gallows rd	fairfax hospital	falls church	va	22042		25	Sun, Thur, Mon, Fri, Tue, Sat, Wed	38.8587532043	-77.2261123657	0	7	3300 gallows rd,falls church,va,22042
1399_101041109	101041109	3020 hamaker ct,		fairfax	va	22031	3,021,034,052,011,060	20	Sun, Thur, Mon, Fri, Tue, Sat, Wed	38.8683586121	-77.2372055054	6	7	3020 hamaker ct,,fairfax,va,22031
139_101021241	101021241	4600 cox rd		glen allen	va	23060	0	10	Fri	37.6633720398	-77.5743560791	1	1	4600 cox rd,glen allen,va,23060
13_101014570	101014570	7811-7813 shrader rd		henrico	va			10	Fri			0	1	7811-7813 shrader rd,henrico,va,
1400_101041120	101041120	po box 800623	uva health system	charlottesville	va	22908	0	2	Sun, Sat			1	2	po box 800623,charlottesville,va,22908
1401_101041120	101041120	2955 ivy rd		charlottesville	va		0	8	Thur			1	1	2955 ivy rd,charlottesville,va,
1402_101041134	101041134	3396 holland rd		virginia beach	va	23452	0	20	Thur	36.8058586121	-76.0897064209	1	1	3396 holland rd,virginia beach,va,23452
1403_101041155	101041155	1830 town ctr dr		reston	va	20190		20	Fri	38.9634056091	-77.364692688	0	1	1830 town ctr dr,reston,va,20190
1404_101041167	101041167	9401 courthouse rd	centre court	chesterfield	va	23832	0	75	Thur, Mon, Fri, Tue, Wed	37.3870697021	-77.5154571533	1	5	9401 courthouse rd,chesterfield,va,23832
1405_101041167	101041167	9401 courthouse rd.	centre court	chesterfield	va	23832	0	75	Thur, Mon, Fri, Tue, Wed	37.3870697021	-77.5154571533	1	5	9401 courthouse rd.,chesterfield,va,23832
1406_101041193	101041193	3650 joseph siewick dr		fairfax	va	22033	0	40	Fri, Wed	38.8875617981	-77.3793334961	1	2	3650 joseph siewick dr,fairfax,va,22033
1407_101041196	101041196	3300 gallows rd	inova fairfax hospital for children	falls church	va	22042	52	25		38.8587532043	-77.2261123657	1	0	3300 gallows rd,falls church,va,22042
1408_101041201	101041201	4710 spotsylvania pkwy		fredericksburg	va	22407		50	Thur, Wed	38.2197799683	-77.5025177002	0	2	4710 spotsylvania pkwy,fredericksburg,va,22407
1409_101041207	101041207	henrico doctors hospital		richmond	va	23229	0	100	Mon,Tue,Wed,Thur,Fri,Sat,Sun			1	7	henrico doctors hospital,richmond,va,23229
140_101021260	101021260	15 hope rd		stafford	va	22554		100		38.4256439209	-77.4062728882	0	0	15 hope rd,stafford,va,22554
1410_101041257	101041257	11803 jefferson ave		newport news	va	23606	0	5	Wed	37.0851745605	-76.4825439453	1	1	11803 jefferson ave,newport news,va,23606
1411_101041260	101041260	800 w leigh st		richmond	va	23220	0	10	Mon, Fri, Wed	37.5532608032	-77.4460449219	1	3	800 w leigh st,richmond,va,23220
1412_101041283	101041283	3960 valley gateway blvd		roanoke	va	24012	0	1	Thur, Mon, Fri, Tue, Sat, Wed	37.3123435974	-79.8820114136	1	6	3960 valley gateway blvd,roanoke,va,24012
1413_101041320	101041320	6491 main st	po box box 316	the plains	va	20198		5	Fri	38.8621063232	-77.7746429443	0	1	6491 main st,the plains,va,20198
1414_101041320	101041320	6491 main steet	p.o. box 316	the plains	va	20198		5	Fri	38.8621444702	-77.7746582031	0	1	6491 main steet,the plains,va,20198
1415_101041329	101041329	8314c traford ln		springfield	va	22152	0	50	Thur, Mon, Fri, Tue, Wed	38.7817955017	-77.2320861816	1	5	8314c traford ln,springfield,va,22152
1416_101041341	101041341	880 kempsvile rd		norfolk	va	23502		25	Thur, Mon, Fri, Tue, Wed	36.8549919128	-76.1940078735	0	5	880 kempsvile rd,norfolk,va,23502
1417_101041341	101041341	880 kempsville rd		norfolk	va	23502	0	25	Thur, Mon, Fri, Tue, Wed	36.8549919128	-76.1940078735	1	5	880 kempsville rd,norfolk,va,23502
1418_101041341	101041341	880 kempsville rd		norfolk	va	23505	98	25	Thur, Mon, Fri, Tue, Wed	36.8549919128	-76.1940078735	1	5	880 kempsville rd,norfolk,va,23505
1419_101041341	101041341	880 kempsville rd		norfolk	va	23502	0	25	Thur, Mon, Fri, Tue	36.8549919128	-76.1940078735	1	4	880 kempsville rd,norfolk,va,23502
141_101036531	101036531	34084 wilderness rd		jonesville	va	24263		25	Wed	36.6877174377	-83.104888916	0	1	34084 wilderness rd,jonesville,va,24263
1420_101041349	101041349	1807 huguenot rd		midlothian	va	23113		100		37.5176849365	-77.6159439087	0	0	1807 huguenot rd,midlothian,va,23113
1421_101041366	101041366	131 elden st		herndon	va	20170	52	50	Thur, Mon, Fri, Tue, Sat, Wed	38.9669647217	-77.3719177246	1	6	131 elden st,herndon,va,20170
1422_101041366	101041366	131 elden st,		herndon	va	22070	52	50	Thur, Mon, Fri, Tue, Wed			1	5	131 elden st,,herndon,va,22070
1423_101041366	101041366	131 elden st		herndon	va	20170	52	50	Thur, Mon, Fri, Tue, Sat, Wed	38.9669647217	-77.3719177246	1	6	131 elden st,herndon,va,20170
1424_101041366	101041366	131 elden st		herndon	va	20170	52	50	Thur, Mon, Fri, Tue, Sat, Wed	38.9669647217	-77.3719177246	1	6	131 elden st,herndon,va,20170
1425_101041370	101041370	1011 e jefferson st		charlottesville	va	22902		40	Thur, Mon, Fri, Tue	38.0299339294	-78.4719619751	0	4	1011 e jefferson st,charlottesville,va,22902
1426_101041371	101041371	416 j clyde morris blvd		newport news	va	23601		100	Mon, Wed	37.0637969971	-76.4853591919	0	2	416 j clyde morris blvd,newport news,va,23601
1427_101041389	101041389	3000 coliseum ave	sentara careplex hospital	hampton	va	23666	0	15	Sun, Thur, Mon, Fri, Tue, Sat, Wed	37.0626373291	-76.3974456787	1	7	3000 coliseum ave,hampton,va,23666
1428_101041389	101041389	1031 loftis blvd		newport news	va	23601		10	Sun, Thur, Mon, Fri, Tue, Wed	37.0842399597	-76.4847259521	0	6	1031 loftis blvd,newport news,va,23601
1429_101041389	101041389	11803 jefferson ave		newport news	va	23606		15	Sun, Thur, Mon, Fri, Tue, Sat, Wed	37.0851745605	-76.4825439453	0	7	11803 jefferson ave,newport news,va,23606
142_101021325	101021325	2616 sherwood hall ln		alexandria	va	22306	0	50	Thur, Mon, Fri, Tue, Wed	38.7433853149	-77.0774078369	1	5	2616 sherwood hall ln,alexandria,va,22306
1430_101041398	101041398	6900 forest ave	mob-2	richmond	va	23230	000,098,052	40	Thur, Wed			3	2	6900 forest ave,richmond,va,23230
1431_101041404	101041404	401 n 11th st		richmond	va	23298	0	20	Wed	37.5415306091	-77.430480957	1	1	401 n 11th st,richmond,va,23298
1432_101041404	101041404	615 jefferson davis hwy		fredericksburg	va	22401		20	Wed	38.3087234497	-77.478477478	0	1	615 jefferson davis hwy,fredericksburg,va,22401
1433_101041449	101041449	150 burnett's way		suffolk	va	23434		30	Tue	36.7694358826	-76.5813064575	0	1	150 burnett's way,suffolk,va,23434
1434_101041449	101041449	150 burnetts way		suffolk	va	23434		50	Tue	36.7694358826	-76.5813064575	0	1	150 burnetts way,suffolk,va,23434
1435_101041478	101041478	6950 piedmont ctr plaza		gainesville	va	20155		5	Sun, Thur, Mon, Fri, Tue, Sat, Wed	38.8079566956	-77.6261672974	0	7	6950 piedmont ctr plaza,gainesville,va,20155
1436_101041478	101041478	21785 filigree court		ashburn	va	20147		95	Thur, Mon, Fri, Tue, Wed	39.0134277344	-77.4574050903	0	5	21785 filigree court,ashburn,va,20147
1437_101041543	101041543	3998 fair ridge dr		fairfax	va	22033		50		38.8714027405	-77.3691635132	0	0	3998 fair ridge dr,fairfax,va,22033
1438_101041556	101041556	160 kingsley ln		norfolk	va	23505		40	Fri, Tue	36.8985824585	-76.2817993164	0	2	160 kingsley ln,norfolk,va,23505
1439_101041565	101041565	7297 f lee hwy		falls church	va	22042	65,021	34	Thur, Mon, Fri, Tue, Sat, Wed	38.8773841858	-77.1911087036	2	6	7297 f lee hwy,falls church,va,22042
143_101021336	101021336	611 carlin springs rd		arlington	va	22204	44	2	Thur,	38.8618583679	-77.1291809082	1	2	611 carlin springs rd,arlington,va,22204
1440_101041575	101041575	2445 army navy dr		arlington	va	22206	0	20	Mon	38.8485603333	-77.0761489868	1	1	2445 army navy dr,arlington,va,22206
1441_101041588	101041588	1554 river birch run n		chesapeake	va	23320		50	Sun, Thur, Mon, Fri, Tue, Sat, Wed	36.7803077698	-76.2239837646	0	7	1554 river birch run n,chesapeake,va,23320
1442_101041598	101041598	2025 waterside rd		prince george	va	23875-1266	0	10	Thur			1	1	2025 waterside rd,prince george,va,23875-1266
1443_101041637	101041637	rte 15		new canton	va		0	5	Sat			1	1	rte 15,new canton,va,
1444_101041648	101041648	3301 woodburn rd		annandale	va	22003	0	30	Thur, Tue	38.8544540405	-77.2261123657	1	2	3301 woodburn rd,annandale,va,22003
1445_101041662	101041662	416 s main st		hillsville	va	24343		10	Wed	36.7566642761	-80.7332305908	0	1	416 s main st,hillsville,va,24343
1446_101041667	101041667	500 hospital dr	fauquier hospital	warrenton	va	20186		70	Thur, Mon, Fri, Tue, Wed	38.7116775513	-77.8095855713	0	5	500 hospital dr,warrenton,va,20186
1447_101041670	101041670	8505 arlington building	400	fairfax	va	22031	52	25	Wed	38.8653793335	-77.2388916016	1	1	8505 arlington building,fairfax,va,22031
1448_101041671	101041671	2201 e main st		richmond	va	23223	0	10	Wed	37.5303726196	-77.4240875244	1	1	2201 e main st,richmond,va,23223
1449_101041671	101041671	2324 colony crossing pl		midlothian	va	23112		25	Wed	37.4594841003	-77.6559524536	0	1	2324 colony crossing pl,midlothian,va,23112
144_101021352	101021352	98 15th st		norton	va	24273	0	20	Fri,	36.9455833435	-82.5908203125	1	2	98 15th st,norton,va,24273
1450_101041671	101041671	301 w broadway		hopewell	va	23860	0	10	Wed	37.3037757874	-77.290435791	1	1	301 w broadway,hopewell,va,23860
1451_101041677	101041677	2201 e main st		richmond	va	23223		10	Thur, Mon, Fri, Tue, Wed	37.5303726196	-77.4240875244	0	5	2201 e main st,richmond,va,23223
1452_101041677	101041677	15 w old st		petersburg	va	23803		50	Thur, Fri, Wed	37.2329483032	-77.4065551758	0	3	15 w old st,petersburg,va,23803
1453_101041722	101041722	3900 westerre pkwy		richmond	va	23233		5	Fri	37.6441078186	-77.5770339966	0	1	3900 westerre pkwy,richmond,va,23233
1454_101041722	101041722	2 n 18th st		richmond	va	23223		20		37.5332221985	-77.4275817871	0	0	2 n 18th st,richmond,va,23223
1455_101041732	101041732	2 bernadine dr		newport news	va	23602	52	15	Sun, Thur, Mon, Fri, Tue, Sat, Wed	37.1443862915	-76.512298584	1	7	2 bernadine dr,newport news,va,23602
1456_101041737	101041737	lamb cir		radford	va	24141		5	Sun, Thur, Mon, Fri, Tue, Sat, Wed			0	7	lamb cir,radford,va,24141
1457_101041748	101041748	box 1405		cedar bluff	va	24609		5	Thur			0	1	box 1405,cedar bluff,va,24609
1458_101041750	101041750	426 w main st		salem	va	24153		20		37.2912902832	-80.0657806396	0	0	426 w main st,salem,va,24153
1459_101041750	101041750	426 w main st		salem	va	24153		20	Thur, Mon, Fri, Tue, Sat, Wed	37.2912902832	-80.0657806396	0	6	426 w main st,salem,va,24153
145_101021497	101021497	3340 woodburn rd.	woodburn ctr for mental health	annandale	va	22003		20	Thur, Mon, Fri, Wed	38.8544616699	-77.2279663086	0	4	3340 woodburn rd.,annandale,va,22003
1460_101041753	101041753	8501 arlington blvd	second floor	fairfax	va	22031	52	5		38.8653793335	-77.2388381958	1	0	8501 arlington blvd,fairfax,va,22031
1461_101041753	101041753	8501 arlington blvd 2nd floor	fairfax regional outpatient ctr	fairfax	va	22031	0	5		38.8654975891	-77.23878479	1	0	8501 arlington blvd 2nd floor,fairfax,va,22031
1462_101041829	101041829	411 w randolph rd		hopewell	va	23860	0	5	Thur, Mon, Fri, Tue, Wed	37.3075942993	-77.2922134399	1	5	411 w randolph rd,hopewell,va,23860
1463_101041839	101041839	mcv-vcu box 540		richmond	va	23298-0504		10				0	0	mcv-vcu box 540,richmond,va,23298-0504
1464_101041889	101041889	acac emmett st		charlottesville	va	22911		5	Thur			0	1	acac emmett st,charlottesville,va,22911
1465_101041890	101041890	860 kempsville rd		norfolk	va	23502		15	Sun, Sat	36.8491325378	-76.1912002563	0	2	860 kempsville rd,norfolk,va,23502
1466_101041890	101041890	301 fort ln		portsmouth	va	23704		15	Sun, Sat	36.8403244019	-76.308380127	0	2	301 fort ln,portsmouth,va,23704
1467_101041906	101041906	224 great bridge blvd	mental health services	chesapeake	va	23320	0	15	Tue	36.7353935242	-76.24559021	1	1	224 great bridge blvd,chesapeake,va,23320
1468_101041932	101041932	1975 glenn mitchell dr		virginia beach	va	23456	28	10	Tue	36.7763671875	-76.0973434448	1	1	1975 glenn mitchell dr,virginia beach,va,23456
1469_101041944	101041944	3300 gallows rd	inova fairfax hospital	falls church	va	22042	4,021,034,044,053	20	Thur, Mon, Fri, Tue, Wed	38.8587532043	-77.2261123657	5	5	3300 gallows rd,falls church,va,22042
146_101021501	101021501	8101 hinson farm rd,	prof ctr	alexandria	va	22306		15	Thur	38.7382316589	-77.0794067383	0	1	8101 hinson farm rd,,alexandria,va,22306
1470_101041956	101041956	15395 lynette's ln		belle haven	va	23306		20	Sun, Thur, Tue	37.5461006165	-75.8151855469	0	3	15395 lynette's ln,belle haven,va,23306
1471_101041956	101041956	1020 independence blvd		virginia beach	va	23455		40	Thur, Wed	36.8734169006	-76.1327362061	0	2	1020 independence blvd,virginia beach,va,23455
1472_101042017	101042017	2778 s e side hwy		elkton	va	22827		20	Thur, Mon, Fri, Tue, Wed	38.4452972412	-78.6161193848	0	5	2778 s e side hwy,elkton,va,22827
1473_101042024	101042024	43480 yukon dr,		ashburn	va	20147	12,052,098	30	Thur, Mon, Fri, Tue, Wed	39.0089302063	-77.4928131104	3	5	43480 yukon dr,,ashburn,va,20147
1474_101042052	101042052			mclean	va	22102	98	15	Thur			1	1	,mclean,va,22102
1475_101042102	101042102	6211 centreville rd		centreville	va	20121	0	100	Thur, Mon, Fri, Tue, Wed	38.8274803162	-77.4364318848	1	5	6211 centreville rd,centreville,va,20121
1476_101042108	101042108	1834 graves mill rd		forest	va	24551		40	Thur, Tue	37.3777694702	-79.2444000244	0	2	1834 graves mill rd,forest,va,24551
1477_101042150	101042150	160 kingsley ln		norfolk	va	23505	0	40	Thur, Mon, Fri, Tue, Wed	36.8985824585	-76.2817993164	1	5	160 kingsley ln,norfolk,va,23505
1478_101042166	101042166	4500 riverside drive,		danville	va	24541		10	Tue	36.5864105225	-79.4491882324	0	1	4500 riverside drive,,danville,va,24541
1479_101042167	101042167	113 gainsborough sq		chesapeake	va	23320		75	Thur, Mon, Fri, Tue, Wed	36.7422180176	-76.2415084839	0	5	113 gainsborough sq,chesapeake,va,23320
147_101021501	101021501	3650 joseph siewick dr. ste. 106	fair oaks office building	fairfax	va	22033		10	Wed	38.8875617981	-77.3793334961	0	1	3650 joseph siewick dr. ste. 106,fairfax,va,22033
1480_101042176	101042176	7347 bell creek roac		mechanicsville	va	23111	54	2	Thur, Mon, Fri, Tue, Wed	37.6032981873	-77.3538970947	1	5	7347 bell creek roac,mechanicsville,va,23111
1481_101042177	101042177	1830 amherst st		winchester	va	22601		10	Thur, Tue	39.1912879944	-78.1963729858	0	2	1830 amherst st,winchester,va,22601
1482_101042193	101042193	8220 meadowbridge rd		mechanicsville	va	23116		50	Thur, Mon, Fri, Tue, Wed	37.6269607544	-77.3852996826	0	5	8220 meadowbridge rd,mechanicsville,va,23116
1483_101042218	101042218	9010 pocahontas trail		providence forge	va	23140		50	Thur, Mon, Fri, Tue, Wed	37.4424591064	-77.0428848267	0	5	9010 pocahontas trail,providence forge,va,23140
1484_101042235	101042235	1830 town ctr dr		reston	va	20190	28,034,052,059	50	Fri, Tue	38.9634056091	-77.364692688	4	2	1830 town ctr dr,reston,va,20190
1485_101042243	101042243	46400 benedict dr	3	sterling heights	va	20164		50	Thur, Mon, Fri, Tue	39.024684906	-77.3944015503	0	4	46400 benedict dr,sterling heights,va,20164
1486_101042245	101042245	8260 atlee rd	bon secours memorial regional medical ctr	mechanicsville	va			25				0	0	8260 atlee rd,mechanicsville,va,
1487_101042245	101042245	st mary's hospital		richmond	va	23226		50				0	0	st mary's hospital,richmond,va,23226
1488_101042261	101042261	8505 prosperity ave		falls church	va	20176	52	20	Thur, Mon, Fri, Tue, Wed			1	5	8505 prosperity ave,falls church,va,20176
1489_101042261	101042261	44045 riverside parkwas	inova loudoun hospital	leesburg	va	20176	52	20	Sun, Thur, Mon, Fri, Tue, Sat, Wed	39.0770530701	-77.4781723022	1	7	44045 riverside parkwas,leesburg,va,20176
148_101021588	101021588	211 w/ 12th st		waynesboro	va	22980	52	5	Thur, Mon, Fri, Tue, Wed			1	5	211 w/ 12th st,waynesboro,va,22980
1490_101042268	101042268	306 e sixth ave		kenbridge	va	23944	0	10	Thur, Mon, Fri, Tue, Wed	36.9604606628	-78.122467041	1	5	306 e sixth ave,kenbridge,va,23944
1491_101042268	101042268	306 e fifth st		kenbridge	va	23944		10	Thur, Mon, Fri, Tue, Wed	36.9616165161	-78.1214141846	0	5	306 e fifth st,kenbridge,va,23944
1492_101042270	101042270	1925 glenn mitchell dr		virginia beach	va	23456	52	33	Thur, Mon, Fri, Tue, Wed	36.7770423889	-76.0969772339	1	5	1925 glenn mitchell dr,virginia beach,va,23456
1493_101042270	101042270	5320 providence rd		virginia beach	va	23464	52,057,021,024	50	Thur, Mon, Fri, Tue, Wed	36.8153305054	-76.1729812622	4	5	5320 providence rd,virginia beach,va,23464
1494_101042273	101042273	150 burnett's way		suffolk	va	23434		15	Fri	36.7694358826	-76.5813064575	0	1	150 burnett's way,suffolk,va,23434
1495_101042292	101042292	500 j clyde morris blvd		newport news	va	23601	0	20	Thur, Mon, Fri, Tue, Wed	37.0715827942	-76.4798049927	1	5	500 j clyde morris blvd,newport news,va,23601
1496_101042292	101042292	12720 mcmanus blvd		newport news	va	23602	0	10	Thur, Mon, Fri, Tue, Wed	37.143321991	-76.5119781494	1	5	12720 mcmanus blvd,newport news,va,23602
1497_101042292	101042292	4000 coliseum dr		hampton	va	23666	0	20	Thur, Mon, Fri, Tue, Wed	37.0626106262	-76.3974609375	1	5	4000 coliseum dr,hampton,va,23666
1498_101042300	101042300	320 winding river ln		charlottesville	va	22911	0	5	Tue	38.0357513428	-78.4541244507	1	1	320 winding river ln,charlottesville,va,22911
1499_101042310	101042310	362 s laurel ave		waynesboro	va	22980	0	5	Thur, Mon, Fri, Tue, Wed	38.0716705322	-78.9030761719	1	5	362 s laurel ave,waynesboro,va,22980
149_101021588	101021588	300 white st	p.o. box 900	lexington	va	24450	0	5	Thur, Mon, Fri, Tue, Wed	37.7831001282	-79.4497528076	1	5	300 white st,lexington,va,24450
14_101014570	101014570	8600 staples mill rd		richmond	va	23228		20		37.6306648254	-77.5073928833	0	0	8600 staples mill rd,richmond,va,23228
1500_101042325	101042325	134 business park dr		virginia beach	va	23462		20		36.8433761597	-76.1754226685	0	0	134 business park dr,virginia beach,va,23462
1501_101042327	101042327	7650 e parham rd	mob ii,	richmond	va	23294		20	Thur, Mon, Fri, Tue, Wed	37.6305046082	-77.5271224976	0	5	7650 e parham rd,richmond,va,23294
1502_101042328	101042328	4320 seminary rd		alexandria	va	22304		2	Thur	38.8243179321	-77.1054916382	0	1	4320 seminary rd,alexandria,va,22304
1503_101042362	101042362	1901 tate springs rd		lynchburg	va		0	76	Sun, Thur, Mon, Fri, Tue, Sat, Wed	37.4174385071	-79.1693496704	1	7	1901 tate springs rd,lynchburg,va,
1504_101042376	101042376	6400 arlington blvd		falls church	va	22042		40		38.872833252	-77.1601028442	0	0	6400 arlington blvd,falls church,va,22042
1505_101042377	101042377	237 garrisonville rd suite102		stafford	va	22554	59	45		38.4724082947	-77.4169387817	1	0	237 garrisonville rd suite102,stafford,va,22554
1506_101042418	101042418	17385 lankford hwy		parksley	va	23421	0	12	Mon	37.7931251526	-75.6023406982	1	1	17385 lankford hwy,parksley,va,23421
1507_101042426	101042426	1503 santa rosa rd		richmond	va	23229		5		37.6002082825	-77.5483093262	0	0	1503 santa rosa rd,richmond,va,23229
1508_101042429	101042429	4550 lee hwy	po box box 1617	dublin	va	24084-1617		10		37.0972442627	-80.7267227173	0	0	4550 lee hwy,dublin,va,24084-1617
1509_101042429	101042429	901 plantation rd		blacksburg	va	24060		60	Wed	37.2241516113	-80.4441680908	0	1	901 plantation rd,blacksburg,va,24060
150_101021588	101021588	2270 magnolia ave		buena vista	va	24416	0	5	Thur, Mon, Fri, Tue, Wed	37.7364578247	-79.3533096313	1	5	2270 magnolia ave,buena vista,va,24416
1510_101042446	101042446	1931 medical ave		harrisonburg	va	22801		10	Tue	38.4281311035	-78.8535842896	0	1	1931 medical ave,harrisonburg,va,22801
1511_101042446	101042446	7101 jahnke rd		richmond	va	23225		5	Thur	37.5158309937	-77.5249862671	0	1	7101 jahnke rd,richmond,va,23225
1512_101042448	101042448	7137 jahnke rd		richmond	va	23225	52	50	Thur, Tue	37.5159454346	-77.5261535645	1	2	7137 jahnke rd,richmond,va,23225
1513_101042448	101042448	7137 jahnke rd		richmond	va	23225	52	50	Thur, Tue	37.5159454346	-77.5261535645	1	2	7137 jahnke rd,richmond,va,23225
1514_101042450	101042450	2501 parker's ln	inova mount vernon hospital	alexandria	va	22306		10	Sun, Thur, Mon, Fri, Tue, Sat, Wed	38.7393074036	-77.0742797852	0	7	2501 parker's ln,alexandria,va,22306
1515_101042450	101042450	2200 opitz blvd		woodbridge	va	22191		25	Sun, Thur, Mon, Fri, Tue, Sat, Wed	38.633392334	-77.2793197632	0	7	2200 opitz blvd,woodbridge,va,22191
1516_101042450	101042450	4320 seminary rd		alexandria	va	22304		25	Sun, Thur, Mon, Fri, Tue, Sat, Wed	38.8243179321	-77.1054916382	0	7	4320 seminary rd,alexandria,va,22304
1517_101042450	101042450	4315 chain bridge rd	access of fairfax	fairfax	va	22030		25	Sun, Thur, Mon, Fri, Tue, Sat, Wed	38.8380470276	-77.3119277954	0	7	4315 chain bridge rd,fairfax,va,22030
1518_101042450	101042450	6355 walker ln	inova healthplex	alexandria	va	22310		5	Sun, Thur, Mon, Fri, Tue, Sat, Wed	38.7677841187	-77.1613311768	0	7	6355 walker ln,alexandria,va,22310
1519_101042450	101042450	4660 kenmore ave		alexandria	va	22304		20	Thur, Mon, Fri, Tue, Sat, Wed	38.8293762207	-77.1102905273	0	6	4660 kenmore ave,alexandria,va,22304
151_101021588	101021588	110 n mason st	p.o. box 26	harrisonburg	va	22802	52,063	3	Thur, Mon, Fri, Tue, Wed	38.4501876831	-78.8662643433	2	5	110 n mason st,harrisonburg,va,22802
1520_101042455	101042455	1430 spring hill rd		mclean	va	2220622182	52	40	Thur, Tue			1	2	1430 spring hill rd,mclean,va,2220622182
1521_101042502	101042502	5855 bremo rd		richmond	va	23226	0	10	Tue, Wed	37.5843048096	-77.5131988525	1	2	5855 bremo rd,richmond,va,23226
1522_101042504	101042504	230 shenandoah st		woodstock	va	22664		20	Thur	38.8648719788	-78.5183563232	0	1	230 shenandoah st,woodstock,va,22664
1523_101042504	101042504	230 shenandoah st		woodstock	va	22664	0	20	Thur, Tue	38.8648719788	-78.5183563232	1	2	230 shenandoah st,woodstock,va,22664
1524_101042514	101042514	8575 rixlew ln		manassas	va	20109		65	Thur, Mon, Fri, Tue, Wed	38.7714271545	-77.500579834	0	5	8575 rixlew ln,manassas,va,20109
1525_101042524	101042524	3058 river road, w		goochland	va	23063	52,053,054,055	50	Thur, Mon, Tue, Wed	37.6907081604	-77.8863754272	4	4	3058 river road, w,goochland,va,23063
1526_101042532	101042532	3022 williams dr		fairfax	va	22031		20	Thur, Mon, Fri, Tue, Wed	38.8689613342	-77.2345581055	0	5	3022 williams dr,fairfax,va,22031
1527_101042536	101042536	2400 lee hwy		pulaski	va	24301		1	Thur, Mon, Fri, Tue, Wed	37.0681304932	-80.7568511963	0	5	2400 lee hwy,pulaski,va,24301
1528_101042536	101042536	1900 electric rd		salem	va	24153		1	Thur, Mon, Fri, Tue, Wed	37.2654533386	-80.0331420898	0	5	1900 electric rd,salem,va,24153
1529_101042540	101042540	201 n. washington st.	kaiser permanente	falls church	va	22046	55	40	Mon,Tue,Wed,Fri,	38.8839073181	-77.1689453125	1	5	201 n. washington st.,falls church,va,22046
152_101021590	101021590	sentara bayside hospital		virginia beach	va		0	15	Sun, Thur, Mon, Fri, Tue, Sat, Wed			1	7	sentara bayside hospital,virginia beach,va,
1530_101042553	101042553	1975 glenn mitchell dr		virginia beach	va	23462	0	20				1	0	1975 glenn mitchell dr,virginia beach,va,23462
1531_101042558	101042558	12001 lee jackson memorial hwy		fairfax	va	22033	28,099	35	Thur, Mon, Tue, Wed	38.8661880493	-77.3595275879	2	4	12001 lee jackson memorial hwy,fairfax,va,22033
1532_101042558	101042558	9015 silverbrook rd,		fairfax	va	22039	28	25	Sun, Thur, Mon, Fri, Tue, Sat, Wed	38.7280006409	-77.2554779053	1	7	9015 silverbrook rd,,fairfax,va,22039
1533_101042558	101042558	9015 silverbrook road,		fairfax	va	22039	52	25	Sun, Thur, Mon, Fri, Tue, Sat, Wed	38.7280006409	-77.2554779053	1	7	9015 silverbrook road,,fairfax,va,22039
1534_101042561	101042561	3750 sentara way		virginia beach	va	23452		60	Thur, Mon, Fri, Tue, Wed	36.8354072571	-76.1029434204	0	5	3750 sentara way,virginia beach,va,23452
1535_101042576	101042576	7016 lee park rd		mechanicsville	va	23111		10	Tue	37.6159820557	-77.3392105103	0	1	7016 lee park rd,mechanicsville,va,23111
1536_101042577	101042577	14051 st francis blvd	2nd flr., ste. 2201	midlothian	va	23112		20	Wed			0	1	14051 st francis blvd,midlothian,va,23112
1537_101042579	101042579	224 d cornwall st nw		leesburg	va	20176		5	Wed	39.1179466248	-77.5684738159	0	1	224 d cornwall st nw,leesburg,va,20176
1538_101042579	101042579	5895 trinity pkwy		centreville	va	20189		5	Thur	38.8396263123	-77.4413299561	0	1	5895 trinity pkwy,centreville,va,20189
1539_101042579	101042579	1860 town ctr dr		reston	va	20190		30	Thur, Mon, Fri, Tue, Wed	38.9627113342	-77.3651199341	0	5	1860 town ctr dr,reston,va,20190
153_101021590	101021590	3636 high st	maryview medical ctr	portsmouth	va		52,058	25	Mon,Tue,Wed,Thur,Fri,Sat,Sun			2	7	3636 high st,portsmouth,va,
1540_101042614	101042614	224-d cornwall st		leesburg	va	20176	0	40	Tue, Wed	39.1179466248	-77.5684738159	1	2	224-d cornwall st,leesburg,va,20176
1541_101042645	101042645	1349 correctional ctr rd		dillwyn	va	23936	0	5	Thur	37.5646324158	-78.4744949341	1	1	1349 correctional ctr rd,dillwyn,va,23936
1542_101042652	101042652	6510 harbor view court		midlothian	va	23112	0	50	Thur,	37.4093666077	-77.6572647095	1	2	6510 harbor view court,midlothian,va,23112
1543_101042668	101042668	901 enterprise pkwy		hampton	va	23666		20	Thur, Mon, Fri, Tue, Wed	37.0550727844	-76.4077835083	0	5	901 enterprise pkwy,hampton,va,23666
1544_101042674	101042674	mcv box 980677		richmond	va	23298		60	Thur, Mon, Fri, Tue, Wed			0	5	mcv box 980677,richmond,va,23298
1545_101042674	101042674	po box box 980677		richmond	va	23298	0	60	Thur, Mon, Fri, Tue, Wed			1	5	po box box 980677,richmond,va,23298
1546_101042690	101042690	720 n saint aseph st		alexandria	va	22314		17	Mon, Tue, Wed	38.8119850159	-77.0444030762	0	3	720 n saint aseph st,alexandria,va,22314
1547_101042699	101042699	2921 s 11th st		arlington	va	22204	53	10	Thur	38.8863525391	-77.093132019	1	1	2921 s 11th st,arlington,va,22204
1548_101042741	101042741	1300 chain bridge rd		mclean	va	22101		10	Thur, Mon, Fri	38.9403305054	-77.1750869751	0	3	1300 chain bridge rd,mclean,va,22101
1549_101042750	101042750	university of virginia	box 800710	charlottesville	va	22908-0710		5				0	0	university of virginia,charlottesville,va,22908-0710
154_101021624	101021624	107 mcdonald st	region ten csb	louisa	va	23093	0	30	Mon	38.022769928	-78.0050506592	1	1	107 mcdonald st,louisa,va,23093
1550_101042751	101042751	12255 fair laks pkwy		fairfax	va	22033	52	20	Wed	38.8586425781	-77.3705062866	1	1	12255 fair laks pkwy,fairfax,va,22033
1551_101042771	101042771	7347 bell creek rd		mechanicsville	va	23111	0	80	Thur, Mon, Fri, Tue, Wed	37.6033554077	-77.3539733887	1	5	7347 bell creek rd,mechanicsville,va,23111
1552_101042771	101042771	7347 bell creek rd		mechanicsville	va	23111		80	Thur, Mon, Fri, Tue, Wed	37.6033554077	-77.3539733887	0	5	7347 bell creek rd,mechanicsville,va,23111
1553_101042776	101042776	6401 loisdale court	springfield ctr	springfield	va	22150	000,052	30	Fri, Wed	38.7777481079	-77.1784210205	2	2	6401 loisdale court,springfield,va,22150
1554_101042776	101042776	6501 loisdale court	allergy 7th floor	springfield	va	22150	98	40	Mon, Wed	38.7760696411	-77.1770629883	1	2	6501 loisdale court,springfield,va,22150
1555_101042783	101042783	5855 bremo road,		richmond	va	23226		5	Thur, Mon, Fri, Tue, Sat, Wed	37.5843048096	-77.5131988525	0	6	5855 bremo road,,richmond,va,23226
1556_101042785	101042785	500 hospital dr		warrenton	va	20186		60	Thur, Mon, Fri, Tue, Wed	38.7116775513	-77.8095855713	0	5	500 hospital dr,warrenton,va,20186
1557_101042807	101042807	550 s carlin springs rd	manor care of arlington	arlington	va	22204	0	33	Thur, Mon, Fri, Tue, Wed	38.8603477478	-77.1295089722	1	5	550 s carlin springs rd,arlington,va,22204
1558_101042807	101042807	2729 king st	woodbine rehabilitation and healthcare	alexandria	va	22302	0	33	Thur, Mon, Fri, Tue, Wed	38.8156242371	-77.0731887817	1	5	2729 king st,alexandria,va,22302
1559_101042808	101042808	1124 s battlefield blvd		chesapeake	va	23322	0	10	Thur, Mon, Fri, Tue, Wed	36.6880607605	-76.2305450439	1	5	1124 s battlefield blvd,chesapeake,va,23322
155_101021634	101021634	320 federal st		lynchburg	va	24504		33	Mon, Fri	37.4165916443	-79.1519393921	0	2	320 federal st,lynchburg,va,24504
1560_101042834	101042834	7101 jahnke rd		richmond	va	23225		2	Thur, Mon, Fri, Tue, Wed	37.5158309937	-77.5249862671	0	5	7101 jahnke rd,richmond,va,23225
1561_101042834	101042834	727 n main st		emporia	va	23847		1	Sun, Thur, Mon, Fri, Tue, Sat, Wed	36.7024917603	-77.5356674194	0	7	727 n main st,emporia,va,23847
1562_101042834	101042834	2621 grove ave		richmond	va	23220		2	Thur, Mon, Fri, Tue, Wed	37.5542564392	-77.4727249146	0	5	2621 grove ave,richmond,va,23220
1563_101042835	101042835	1101 sam perry blvd		fredericksburg	va			10	Thur, Mon, Fri, Tue, Wed	38.3094329834	-77.4827194214	0	5	1101 sam perry blvd,fredericksburg,va,
1564_101042835	101042835	1300 hospital dr	200	fredericksburg	va	22407		10				0	0	1300 hospital dr,fredericksburg,va,22407
1565_101042835	101042835	1101 sam perry blvd		fredericksburg	va	22401		10	Fri	38.3094329834	-77.4827194214	0	1	1101 sam perry blvd,fredericksburg,va,22401
1566_101042835	101042835	1300 hospital dr		fredericksburg	va	22407		10	Thur, Mon, Fri, Tue, Wed			0	5	1300 hospital dr,fredericksburg,va,22407
1567_101042854	101042854	8318 arlington blvd		fairfax	va	22031	28,052	30	Thur, Mon, Fri, Tue, Sat, Wed	38.866317749	-77.2330780029	2	6	8318 arlington blvd,fairfax,va,22031
1568_101042860	101042860	15225 heathcote blvd	novant health haymarket medical center,	haymarket	va	20169		50	Sun, Thur, Mon, Fri, Tue, Sat, Wed	38.8219947815	-77.639175415	0	7	15225 heathcote blvd,haymarket,va,20169
1569_101042861	101042861	5855 bremo rd		richmond	va	23226	0	1	Thur, Mon, Fri, Tue, Wed	37.5843048096	-77.5131988525	1	5	5855 bremo rd,richmond,va,23226
156_101021634	101021634	810 blue ridge avenue,		bedford	va	24523-2433		10	Tue	37.3359909058	-79.5406112671	0	1	810 blue ridge avenue,,bedford,va,24523-2433
1570_101042886	101042886	po box 1449		kilmarnock	va	22482	0	50	Thur, Mon, Fri, Tue, Wed			1	5	po box 1449,kilmarnock,va,22482
1571_101042893	101042893	1101 e marshall st	3rd floor, gateway building	richmond	va	23298	0	10	Mon	37.5405578613	-77.4313583374	1	1	1101 e marshall st,richmond,va,23298
1572_101042893	101042893	sam perry blvd		fredericksburg	va		0	10	Thur			1	1	sam perry blvd,fredericksburg,va,
1573_101042908	101042908	13801 st francis blvd		midlothian	va	23114		50	Wed	37.466053009	-77.6600494385	0	1	13801 st francis blvd,midlothian,va,23114
1574_101042910	101042910	15195 heathcote blvd		haymarket	va	20169	0	50	Fri, Tue	38.8208770752	-77.6419143677	1	2	15195 heathcote blvd,haymarket,va,20169
1575_101042925	101042925	5855 bremo rd		richmond	va	23226	0	25	Mon	37.5843048096	-77.5131988525	1	1	5855 bremo rd,richmond,va,23226
1576_101042925	101042925			richmond	va		0	25	Tue			1	1	,richmond,va,
1577_101042934	101042934	1 arh ln		low moor	va	24457		15	Mon, Fri, Wed			0	3	1 arh ln,low moor,va,24457
1578_101042934	101042934	allegheny regional hospital		low moor	va	24457		10	Mon			0	1	allegheny regional hospital,low moor,va,24457
1579_101042937	101042937	1005 commercial ln		suffolk	va	23434	52,033	20	Tue	36.7783317566	-76.5811309814	2	1	1005 commercial ln,suffolk,va,23434
157_101021719	101021719	1420 n shenandoah ave		front royal	va	22630	0	20	Tue	38.9361228943	-78.1995315552	1	1	1420 n shenandoah ave,front royal,va,22630
1580_101042937	101042937	12695 mcmanus blvd		newport news	va	23602	52	20	Thur	37.141040802	-76.5130233765	1	1	12695 mcmanus blvd,newport news,va,23602
1581_101042943	101042943	2 bernardine drive, dept of radiology	mary immaculate hospital	newport news	va	23602	8,052,053,055,061,050	30	Sun, Thur, Mon, Fri, Tue, Sat, Wed	37.144443512	-76.511177063	6	7	2 bernardine drive, dept of radiology,newport news,va,23602
